$GNRMC,015910.00,A,1342.39039,N,10023.65046,E,0.004,,040922,,,A,V*14
$GNVTG,,T,,M,0.004,N,0.008,K,A*31
$GNGGA,015910.00,1342.39039,N,10023.65046,E,1,12,0.54,-1.8,M,-28.2,M,,*48
$GNGSA,A,3,02,05,20,06,11,19,25,12,,,,,1.20,0.54,1.07,1*0A
$GNGSA,A,3,69,67,68,83,82,,,,,,,,1.20,0.54,1.07,2*07
$GNGSA,A,3,09,36,02,11,05,25,,,,,,,1.20,0.54,1.07,3*0B
$GNGSA,A,3,35,08,13,10,29,19,07,22,,,,,1.20,0.54,1.07,4*09
$GPGSV,3,1,12,02,31,329,42,05,61,266,45,06,22,048,37,11,36,013,40,1*67
$GPGSV,3,2,12,12,49,271,40,13,30,164,32,19,35,110,35,20,58,356,48,1*60
$GPGSV,3,3,12,25,21,303,31,39,45,252,34,41,64,233,46,50,55,115,42,1*69
$GPGSV,2,1,05,05,61,266,40,06,22,048,31,11,36,013,38,12,49,271,32,6*6E
$GPGSV,2,2,05,25,21,303,30,6*51
$GPGSV,1,1,02,09,00,042,,40,36,257,,0*69
$GLGSV,2,1,07,67,23,032,31,68,70,075,48,69,44,186,47,73,17,274,30,1*7B
$GLGSV,2,2,07,81,06,099,20,82,28,056,43,83,27,004,24,1*4A
$GLGSV,2,1,07,67,23,032,37,68,70,075,48,69,44,186,47,73,17,274,28,3*76
$GLGSV,2,2,07,81,06,099,23,82,28,056,46,83,27,004,33,3*48
$GLGSV,1,1,02,74,00,314,,80,20,225,,0*71
$GAGSV,2,1,08,02,43,263,34,05,46,161,45,09,45,081,38,10,03,080,29,2*73
$GAGSV,2,2,08,11,20,060,27,18,66,020,48,25,36,195,41,36,37,007,39,2*7E
$GAGSV,2,1,06,05,46,161,47,09,45,081,45,11,20,060,29,18,66,020,49,7*7D
$GAGSV,2,2,06,25,36,195,43,36,37,007,38,7*70
$GAGSV,2,1,05,03,08,201,,04,06,043,,24,00,156,,30,12,309,,0*71
$GAGSV,2,2,05,30,12,309,,0*4B
$GBGSV,2,1,08,07,63,172,39,08,43,350,42,10,73,200,45,13,47,333,47,1*79
$GBGSV,2,2,08,19,50,041,49,22,70,198,51,29,35,086,38,35,49,014,48,1*72
$GBGSV,1,1,04,07,63,172,40,08,43,350,41,10,73,200,45,13,47,333,40,3*7E
$GNGLL,1342.39039,N,10023.65046,E,015910.00,A,A*7E
$GNRMC,015911.00,A,1342.39039,N,10023.65047,E,0.008,,040922,,,A,V*18
$GNVTG,,T,,M,0.008,N,0.015,K,A*31
$GNGGA,015911.00,1342.39039,N,10023.65047,E,1,12,0.54,-1.7,M,-28.2,M,,*47
$GNGSA,A,3,02,05,20,06,11,19,25,12,,,,,1.20,0.54,1.07,1*0A
$GNGSA,A,3,69,67,68,83,82,,,,,,,,1.20,0.54,1.07,2*07
$GNGSA,A,3,09,36,02,11,05,25,,,,,,,1.20,0.54,1.07,3*0B
$GNGSA,A,3,35,08,13,10,29,19,07,22,,,,,1.20,0.54,1.07,4*09
$GPGSV,3,1,12,02,31,329,42,05,61,266,45,06,22,048,37,11,36,013,40,1*67
$GPGSV,3,2,12,12,49,271,40,13,30,164,32,19,35,110,35,20,58,356,48,1*60
$GPGSV,3,3,12,25,21,303,30,39,45,252,34,41,64,233,46,50,55,115,42,1*68
$GPGSV,2,1,05,05,61,266,40,06,22,048,31,11,36,013,38,12,49,271,32,6*6E
$GPGSV,2,2,05,25,21,303,30,6*51
$GPGSV,1,1,02,09,00,042,,40,36,257,,0*69
$GLGSV,2,1,06,67,23,032,31,68,70,075,48,69,44,186,47,73,17,274,30,1*7A
$GLGSV,2,2,06,81,06,099,20,82,28,056,43,1*77
$GLGSV,2,1,07,67,23,032,36,68,70,075,48,69,44,186,47,73,17,274,28,3*77
$GLGSV,2,2,07,81,06,099,23,82,28,056,46,83,27,004,34,3*4F
$GLGSV,1,1,02,74,00,314,,80,20,225,,0*71
$GAGSV,2,1,08,02,43,263,34,05,46,161,45,09,45,081,38,10,03,080,29,2*73
$GAGSV,2,2,08,11,20,060,27,18,66,020,48,25,36,195,41,36,37,007,39,2*7E
$GAGSV,2,1,07,05,46,161,47,09,45,081,45,11,20,060,28,18,66,020,49,7*7D
$GAGSV,2,2,07,25,36,195,43,34,20,311,28,36,37,007,38,7*4D
$GAGSV,1,1,04,03,08,201,,04,06,043,,24,00,156,,30,12,309,,0*73
$GBGSV,2,1,08,07,63,172,39,08,43,350,42,10,73,200,45,13,47,333,47,1*79
$GBGSV,2,2,08,19,50,041,49,22,70,198,51,29,35,086,38,35,49,014,48,1*72
$GBGSV,1,1,04,07,63,172,40,08,43,350,41,10,73,200,44,13,47,333,40,3*7F
$GNGLL,1342.39039,N,10023.65047,E,015911.00,A,A*7E
$GNRMC,015912.00,A,1342.39039,N,10023.65047,E,0.005,,040922,,,A,V*16
$GNVTG,,T,,M,0.005,N,0.009,K,A*31
$GNGGA,015912.00,1342.39039,N,10023.65047,E,1,12,0.54,-1.7,M,-28.2,M,,*44
$GNGSA,A,3,02,05,20,06,11,19,25,12,,,,,1.20,0.54,1.07,1*0A
$GNGSA,A,3,69,67,68,83,82,,,,,,,,1.20,0.54,1.07,2*07
$GNGSA,A,3,09,36,02,11,05,25,,,,,,,1.20,0.54,1.07,3*0B
$GNGSA,A,3,35,08,13,10,29,19,07,22,,,,,1.20,0.54,1.07,4*09
$GPGSV,3,1,12,02,31,329,42,05,61,266,45,06,22,048,37,11,36,013,40,1*67
$GPGSV,3,2,12,12,49,271,40,13,30,164,31,19,35,110,35,20,58,356,48,1*63
$GPGSV,3,3,12,25,21,303,30,39,45,252,34,41,64,233,46,50,55,115,42,1*68
$GPGSV,2,1,05,05,61,266,40,06,22,048,31,11,36,013,38,12,49,271,32,6*6E
$GPGSV,2,2,05,25,21,303,30,6*51
$GPGSV,1,1,02,09,00,042,,40,36,257,,0*69
$GLGSV,2,1,06,67,23,032,31,68,70,075,48,69,44,186,47,73,17,274,30,1*7A
$GLGSV,2,2,06,81,06,099,20,82,28,056,43,1*77
$GLGSV,2,1,07,67,23,032,36,68,70,075,48,69,44,186,47,73,17,274,27,3*78
$GLGSV,2,2,07,81,06,099,22,82,28,056,46,83,27,004,33,3*49
$GLGSV,1,1,02,74,00,314,,80,20,225,,0*71
$GAGSV,2,1,08,02,43,263,34,05,46,161,45,09,45,081,38,10,03,080,29,2*73
$GAGSV,2,2,08,11,20,060,27,18,66,020,48,25,36,195,41,36,37,007,39,2*7E
$GAGSV,2,1,07,05,46,161,47,09,45,081,45,11,20,060,28,18,66,020,49,7*7D
$GAGSV,2,2,07,25,36,195,43,34,20,311,27,36,37,007,38,7*42
$GAGSV,1,1,04,03,08,201,,04,06,043,,24,00,156,,30,12,309,,0*73
$GBGSV,2,1,08,07,63,172,39,08,43,350,42,10,73,200,45,13,47,333,47,1*79
$GBGSV,2,2,08,19,50,041,49,22,70,198,51,29,35,086,38,35,49,014,48,1*72
$GBGSV,1,1,04,07,63,172,40,08,43,350,41,10,73,200,44,13,47,333,40,3*7F
$GNGLL,1342.39039,N,10023.65047,E,015912.00,A,A*7D
$GNRMC,015913.00,A,1342.39039,N,10023.65048,E,0.008,,040922,,,A,V*15
$GNVTG,,T,,M,0.008,N,0.015,K,A*31
$GNGGA,015913.00,1342.39039,N,10023.65048,E,1,12,0.54,-1.7,M,-28.2,M,,*4A
$GNGSA,A,3,02,05,20,06,11,19,25,12,,,,,1.20,0.54,1.07,1*0A
$GNGSA,A,3,69,67,68,83,82,,,,,,,,1.20,0.54,1.07,2*07
$GNGSA,A,3,09,36,02,11,05,25,,,,,,,1.20,0.54,1.07,3*0B
$GNGSA,A,3,35,08,13,10,29,19,07,22,,,,,1.20,0.54,1.07,4*09
$GPGSV,3,1,12,02,31,329,42,05,61,266,45,06,22,048,37,11,36,013,40,1*67
$GPGSV,3,2,12,12,49,271,40,13,30,164,31,19,35,110,35,20,58,356,48,1*63
$GPGSV,3,3,12,25,21,303,30,39,45,252,34,41,64,233,46,50,55,115,42,1*68
$GPGSV,2,1,05,05,61,266,40,06,22,048,31,11,36,013,38,12,49,271,32,6*6E
$GPGSV,2,2,05,25,21,303,30,6*51
$GPGSV,1,1,02,09,00,042,,40,36,257,,0*69
$GLGSV,2,1,06,67,23,032,31,68,70,075,48,69,44,186,47,73,17,274,30,1*7A
$GLGSV,2,2,06,81,06,099,20,82,28,056,43,1*77
$GLGSV,2,1,07,67,23,032,37,68,70,075,48,69,44,186,47,73,17,274,27,3*79
$GLGSV,2,2,07,81,06,099,22,82,28,056,46,83,27,004,33,3*49
$GLGSV,1,1,02,74,00,314,,80,20,225,,0*71
$GAGSV,2,1,08,02,43,263,34,05,46,161,45,09,45,081,38,10,03,080,29,2*73
$GAGSV,2,2,08,11,20,060,27,18,66,020,49,25,36,195,41,36,37,007,39,2*7F
$GAGSV,2,1,07,05,46,161,47,09,45,081,45,11,20,060,29,18,66,020,49,7*7C
$GAGSV,2,2,07,25,36,195,43,34,20,311,27,36,37,007,39,7*43
$GAGSV,1,1,04,03,08,201,,04,06,043,,24,00,156,,30,12,309,,0*73
$GBGSV,2,1,08,07,63,172,39,08,43,350,42,10,73,200,45,13,47,333,47,1*79
$GBGSV,2,2,08,19,50,041,49,22,70,198,51,29,35,086,38,35,49,014,48,1*72
$GBGSV,1,1,04,07,63,172,40,08,43,350,41,10,73,200,44,13,47,333,40,3*7F
$GNGLL,1342.39039,N,10023.65048,E,015913.00,A,A*73
$GNRMC,015914.00,A,1342.39039,N,10023.65048,E,0.006,,040922,,,A,V*1C
$GNVTG,,T,,M,0.006,N,0.011,K,A*3B
$GNGGA,015914.00,1342.39039,N,10023.65048,E,1,12,0.54,-1.6,M,-28.2,M,,*4C
$GNGSA,A,3,02,05,20,06,11,19,25,12,,,,,1.20,0.54,1.07,1*0A
$GNGSA,A,3,69,67,68,83,82,,,,,,,,1.20,0.54,1.07,2*07
$GNGSA,A,3,09,36,02,11,05,25,,,,,,,1.20,0.54,1.07,3*0B
$GNGSA,A,3,35,08,13,10,29,19,07,22,,,,,1.20,0.54,1.07,4*09
$GPGSV,3,1,12,02,31,329,42,05,61,266,45,06,22,048,37,11,36,013,40,1*67
$GPGSV,3,2,12,12,49,271,40,13,30,164,31,19,35,110,34,20,58,356,48,1*62
$GPGSV,3,3,12,25,21,303,31,39,45,252,34,41,64,233,46,50,55,115,42,1*69
$GPGSV,2,1,05,05,61,266,40,06,22,048,31,11,36,013,38,12,49,271,32,6*6E
$GPGSV,2,2,05,25,21,303,30,6*51
$GPGSV,1,1,02,09,00,042,,40,36,257,,0*69
$GLGSV,2,1,06,67,23,032,31,68,70,075,48,69,44,186,46,73,17,274,30,1*7B
$GLGSV,2,2,06,81,06,099,20,82,28,056,43,1*77
$GLGSV,2,1,07,67,23,032,36,68,70,075,47,69,44,186,45,73,17,274,27,3*75
$GLGSV,2,2,07,81,06,099,22,82,28,056,45,83,27,004,33,3*4A
$GLGSV,1,1,02,74,00,314,,80,20,225,,0*71
$GAGSV,2,1,08,02,43,263,34,05,46,161,45,09,45,081,38,10,03,080,29,2*73
$GAGSV,2,2,08,11,20,060,27,18,66,020,48,25,36,195,39,36,37,007,39,2*71
$GAGSV,2,1,06,05,46,161,46,09,45,081,45,11,20,060,28,18,66,020,49,7*7D
$GAGSV,2,2,06,25,36,195,42,36,37,007,39,7*70
$GAGSV,2,1,05,03,08,201,,04,06,043,,24,00,156,,30,12,309,,0*71
$GAGSV,2,2,05,30,12,309,,0*4B
$GBGSV,2,1,08,07,63,172,39,08,43,350,41,10,73,200,44,13,47,333,47,1*7B
$GBGSV,2,2,08,19,50,041,49,22,70,198,51,29,35,086,38,35,49,014,48,1*72
$GBGSV,1,1,04,07,63,172,40,08,43,350,41,10,73,200,44,13,47,333,40,3*7F
$GNGLL,1342.39039,N,10023.65048,E,015914.00,A,A*74
$GNRMC,015915.00,A,1342.39039,N,10023.65048,E,0.007,,040922,,,A,V*1C
$GNVTG,,T,,M,0.007,N,0.013,K,A*38
$GNGGA,015915.00,1342.39039,N,10023.65048,E,1,12,0.54,-1.6,M,-28.2,M,,*4D
$GNGSA,A,3,02,05,20,06,11,19,25,12,,,,,1.20,0.54,1.07,1*0A
$GNGSA,A,3,69,67,68,83,82,,,,,,,,1.20,0.54,1.07,2*07
$GNGSA,A,3,09,36,02,11,05,25,,,,,,,1.20,0.54,1.07,3*0B
$GNGSA,A,3,35,08,13,10,29,19,07,22,,,,,1.20,0.54,1.07,4*09
$GPGSV,3,1,12,02,31,329,41,05,61,266,46,06,22,048,36,11,36,013,40,1*66
$GPGSV,3,2,12,12,49,271,40,13,30,164,30,19,35,110,35,20,58,356,47,1*6D
$GPGSV,3,3,12,25,21,303,30,39,45,252,33,41,64,233,46,50,55,115,42,1*6F
$GPGSV,2,1,05,05,61,266,41,06,22,048,31,11,36,013,38,12,49,271,33,6*6E
$GPGSV,2,2,05,25,21,303,30,6*51
$GPGSV,1,1,02,09,00,042,,40,36,257,,0*69
$GLGSV,2,1,07,67,23,032,30,68,70,075,47,69,44,186,44,73,17,274,29,1*7E
$GLGSV,2,2,07,81,06,099,21,82,28,056,44,83,27,004,26,1*4E
$GLGSV,2,1,07,67,23,032,36,68,70,075,47,69,44,186,43,73,17,274,27,3*73
$GLGSV,2,2,07,81,06,099,22,82,28,056,45,83,27,004,31,3*48
$GLGSV,1,1,02,74,00,314,,80,20,225,,0*71
$GAGSV,2,1,08,02,43,263,34,05,46,161,45,09,45,081,39,10,03,080,29,2*72
$GAGSV,2,2,08,11,20,060,26,18,66,020,48,25,36,195,36,36,37,007,39,2*7F
$GAGSV,2,1,06,05,46,161,46,09,45,081,45,11,20,060,29,18,66,020,49,7*7C
$GAGSV,2,2,06,25,36,195,39,36,37,007,38,7*7D
$GAGSV,2,1,05,03,08,201,,04,06,043,,24,00,156,,30,12,309,,0*71
$GAGSV,2,2,05,30,12,309,,0*4B
$GBGSV,2,1,08,07,63,172,40,08,43,350,41,10,73,200,45,13,47,333,47,1*74
$GBGSV,2,2,08,19,50,041,49,22,70,198,51,29,35,086,40,35,49,014,47,1*72
$GBGSV,1,1,04,07,63,172,40,08,43,350,41,10,73,200,44,13,47,333,40,3*7F
$GNGLL,1342.39039,N,10023.65048,E,015915.00,A,A*75
$GNRMC,015916.00,A,1342.39039,N,10023.65048,E,0.008,,040922,,,A,V*10
$GNVTG,,T,,M,0.008,N,0.014,K,A*30
$GNGGA,015916.00,1342.39039,N,10023.65048,E,1,12,0.54,-1.6,M,-28.2,M,,*4E
$GNGSA,A,3,02,05,20,06,11,19,25,12,,,,,1.20,0.54,1.07,1*0A
$GNGSA,A,3,69,67,68,83,82,,,,,,,,1.20,0.54,1.07,2*07
$GNGSA,A,3,09,36,02,11,05,25,,,,,,,1.20,0.54,1.07,3*0B
$GNGSA,A,3,35,08,13,10,29,19,07,22,,,,,1.20,0.54,1.07,4*09
$GPGSV,3,1,12,02,31,329,41,05,61,266,46,06,22,048,35,11,36,013,41,1*64
$GPGSV,3,2,12,12,49,271,40,13,30,164,30,19,35,110,35,20,58,356,48,1*62
$GPGSV,3,3,12,25,21,303,30,39,45,252,34,41,64,233,47,50,55,115,42,1*69
$GPGSV,2,1,05,05,61,266,41,06,22,048,31,11,36,013,38,12,49,271,33,6*6E
$GPGSV,2,2,05,25,21,303,31,6*50
$GPGSV,1,1,02,09,00,042,,40,36,257,,0*69
$GLGSV,2,1,07,67,23,032,33,68,70,072,47,69,44,186,45,73,17,274,29,1*7B
$GLGSV,2,2,07,81,06,099,21,82,28,056,44,83,27,004,24,1*4C
$GLGSV,2,1,07,67,23,032,36,68,70,072,47,69,44,186,44,73,17,274,27,3*73
$GLGSV,2,2,07,81,06,099,21,82,28,056,45,83,27,004,32,3*48
$GLGSV,1,1,02,74,00,314,,80,20,225,,0*71
$GAGSV,2,1,08,02,43,263,34,05,46,161,45,09,45,081,39,10,03,080,29,2*72
$GAGSV,2,2,08,11,20,060,25,18,66,020,49,25,36,195,38,36,37,007,40,2*7D
$GAGSV,2,1,06,05,46,161,46,09,45,081,45,11,20,060,29,18,66,020,48,7*7D
$GAGSV,2,2,06,25,36,195,39,36,37,007,37,7*72
$GAGSV,2,1,05,03,08,201,,04,06,043,,24,00,156,,30,12,309,,0*71
$GAGSV,2,2,05,30,12,309,,0*4B
$GBGSV,2,1,08,07,63,172,40,08,43,350,41,10,73,200,45,13,47,333,47,1*74
$GBGSV,2,2,08,19,50,041,49,22,70,198,51,29,35,086,38,35,49,014,48,1*72
$GBGSV,1,1,04,07,63,172,41,08,43,350,41,10,73,200,44,13,47,333,40,3*7E
$GNGLL,1342.39039,N,10023.65048,E,015916.00,A,A*76
$GNRMC,015917.00,A,1342.39039,N,10023.65048,E,0.018,,040922,,,A,V*10
$GNVTG,,T,,M,0.018,N,0.034,K,A*33
$GNGGA,015917.00,1342.39039,N,10023.65048,E,1,12,0.54,-1.5,M,-28.2,M,,*4C
$GNGSA,A,3,02,05,20,06,11,19,25,12,,,,,1.20,0.54,1.07,1*0A
$GNGSA,A,3,69,67,68,83,82,,,,,,,,1.20,0.54,1.07,2*07
$GNGSA,A,3,09,36,02,11,05,25,,,,,,,1.20,0.54,1.07,3*0B
$GNGSA,A,3,35,08,13,10,29,19,07,22,,,,,1.20,0.54,1.07,4*09
$GPGSV,3,1,12,02,31,329,45,05,61,266,48,06,22,048,38,11,36,013,41,1*63
$GPGSV,3,2,12,12,49,271,42,13,30,164,30,19,35,110,37,20,58,356,51,1*6A
$GPGSV,3,3,12,25,21,303,30,39,45,252,36,41,64,233,49,50,55,115,44,1*63
$GPGSV,2,1,05,05,61,266,43,06,22,048,35,11,36,013,41,12,49,271,36,6*63
$GPGSV,2,2,05,25,21,303,34,6*55
$GPGSV,1,1,02,09,00,042,,40,36,257,,0*69
$GLGSV,2,1,07,67,23,032,35,68,70,072,51,69,44,186,48,73,17,274,33,1*7C
$GLGSV,2,2,07,81,06,099,24,82,28,056,47,83,27,004,22,1*4C
$GLGSV,2,1,07,67,23,032,38,68,70,072,50,69,44,186,47,73,17,274,28,3*77
$GLGSV,2,2,07,81,06,099,21,82,28,056,47,83,27,004,32,3*4A
$GLGSV,1,1,02,74,00,314,,80,20,225,,0*71
$GAGSV,2,1,08,02,43,263,36,05,46,161,47,09,45,081,40,10,03,080,28,2*7D
$GAGSV,2,2,08,11,20,060,25,18,66,020,50,25,36,195,40,36,37,007,42,2*78
$GAGSV,2,1,05,05,46,161,47,09,45,081,47,18,66,020,50,25,36,195,42,7*72
$GAGSV,2,2,05,36,37,007,38,7*4B
$GAGSV,2,1,05,03,08,201,,04,06,043,,24,00,156,,30,12,309,,0*71
$GAGSV,2,2,05,30,12,309,,0*4B
$GBGSV,2,1,08,07,63,172,41,08,43,350,44,10,73,200,46,13,47,333,49,1*7D
$GBGSV,2,2,08,19,50,041,52,22,70,198,53,29,35,086,40,35,49,014,51,1*7D
$GBGSV,1,1,04,07,63,172,43,08,43,350,43,10,73,200,47,13,47,333,43,3*7E
$GNGLL,1342.39039,N,10023.65048,E,015917.00,A,A*77
$GNRMC,015918.00,A,1342.39039,N,10023.65049,E,0.005,,040922,,,A,V*12
$GNVTG,,T,,M,0.005,N,0.010,K,A*39
$GNGGA,015918.00,1342.39039,N,10023.65049,E,1,12,0.54,-1.5,M,-28.2,M,,*42
$GNGSA,A,3,02,05,20,06,11,19,25,12,,,,,1.20,0.54,1.07,1*0A
$GNGSA,A,3,69,67,68,83,82,,,,,,,,1.20,0.54,1.07,2*07
$GNGSA,A,3,09,36,02,11,05,25,,,,,,,1.20,0.54,1.07,3*0B
$GNGSA,A,3,35,08,13,10,29,19,07,22,,,,,1.20,0.54,1.07,4*09
$GPGSV,3,1,12,02,31,329,43,05,61,266,47,06,22,048,36,11,36,013,40,1*65
$GPGSV,3,2,12,12,49,271,41,13,30,164,25,19,35,110,35,20,58,356,49,1*66
$GPGSV,3,3,12,25,21,303,29,39,45,252,34,41,64,233,47,50,55,115,43,1*60
$GPGSV,2,1,05,05,61,266,43,06,22,048,34,11,36,013,41,12,49,271,34,6*60
$GPGSV,2,2,05,25,21,303,31,6*50
$GPGSV,1,1,02,09,00,042,,40,36,257,,0*69
$GLGSV,2,1,07,67,23,032,34,68,70,072,50,69,44,186,46,73,17,274,32,1*73
$GLGSV,2,2,07,81,06,099,25,82,28,056,46,83,27,004,20,1*4E
$GLGSV,2,1,07,67,23,032,38,68,70,072,48,69,44,186,45,73,17,274,28,3*7C
$GLGSV,2,2,07,81,06,099,22,82,28,056,46,83,27,004,32,3*48
$GLGSV,1,1,02,74,00,314,,80,20,225,,0*71
$GAGSV,2,1,08,02,43,263,34,05,46,161,46,09,45,081,40,10,03,080,29,2*7F
$GAGSV,2,2,08,11,20,060,25,18,66,020,49,25,36,195,38,36,37,007,40,2*7D
$GAGSV,2,1,05,05,46,161,47,09,45,081,46,18,66,020,50,25,36,195,41,7*70
$GAGSV,2,2,05,36,37,007,37,7*44
$GAGSV,2,1,05,03,08,201,,04,06,043,,24,00,156,,30,12,309,,0*71
$GAGSV,2,2,05,30,12,309,,0*4B
$GBGSV,2,1,08,07,63,172,41,08,43,350,43,10,73,200,46,13,47,333,48,1*7B
$GBGSV,2,2,08,19,50,041,51,22,70,198,52,29,35,086,40,35,49,014,49,1*76
$GBGSV,1,1,04,07,63,172,41,08,43,350,41,10,73,200,45,13,47,333,41,3*7E
$GNGLL,1342.39039,N,10023.65049,E,015918.00,A,A*79
$GNRMC,015919.00,A,1342.39039,N,10023.65049,E,0.011,,040922,,,A,V*16
$GNVTG,,T,,M,0.011,N,0.021,K,A*3E
$GNGGA,015919.00,1342.39039,N,10023.65049,E,1,12,0.54,-1.5,M,-28.2,M,,*43
$GNGSA,A,3,02,05,20,06,11,19,25,12,,,,,1.20,0.54,1.07,1*0A
$GNGSA,A,3,69,67,68,83,82,,,,,,,,1.20,0.54,1.07,2*07
$GNGSA,A,3,09,36,02,11,05,25,,,,,,,1.20,0.54,1.07,3*0B
$GNGSA,A,3,35,08,13,10,29,19,07,22,,,,,1.20,0.54,1.07,4*09
$GPGSV,3,1,12,02,31,329,42,05,61,266,46,06,22,048,35,11,36,013,38,1*69
$GPGSV,3,2,12,12,49,271,40,13,30,164,27,19,35,110,33,20,58,356,48,1*62
$GPGSV,3,3,12,25,21,303,30,39,45,252,34,41,64,233,46,50,55,115,42,1*68
$GPGSV,2,1,05,05,61,266,41,06,22,048,30,11,36,013,37,12,49,271,34,6*67
$GPGSV,2,2,05,25,21,303,30,6*51
$GPGSV,1,1,02,09,00,042,,40,36,257,,0*69
$GLGSV,2,1,07,67,23,032,33,68,70,072,49,69,44,186,45,73,17,274,30,1*7D
$GLGSV,2,2,07,81,06,099,25,82,28,056,45,83,27,004,20,1*4D
$GLGSV,2,1,07,67,23,032,36,68,70,072,47,69,44,186,44,73,17,274,28,3*7C
$GLGSV,2,2,07,81,06,099,22,82,28,056,45,83,27,004,31,3*48
$GLGSV,1,1,02,74,00,314,,80,20,225,,0*71
$GAGSV,2,1,08,02,43,263,34,05,46,161,47,09,45,081,40,10,03,080,29,2*7E
$GAGSV,2,2,08,11,20,060,25,18,66,020,49,25,36,195,38,36,37,007,40,2*7D
$GAGSV,2,1,06,05,46,161,46,09,45,081,46,11,20,060,29,18,66,020,49,7*7F
$GAGSV,2,2,06,25,36,195,39,36,37,007,37,7*72
$GAGSV,2,1,05,03,08,201,,04,06,043,,24,00,156,,30,12,309,,0*71
$GAGSV,2,2,05,30,12,309,,0*4B
$GBGSV,2,1,08,07,63,172,39,08,43,350,41,10,73,200,44,13,47,333,47,1*7B
$GBGSV,2,2,08,19,50,041,49,22,70,198,51,29,35,086,38,35,49,014,48,1*72
$GBGSV,1,1,04,07,63,172,41,08,43,350,41,10,73,200,45,13,47,333,41,3*7E
$GNGLL,1342.39039,N,10023.65049,E,015919.00,A,A*78
$GNRMC,015920.00,A,1342.39039,N,10023.65049,E,0.003,,040922,,,A,V*1F
$GNVTG,,T,,M,0.003,N,0.006,K,A*38
$GNGGA,015920.00,1342.39039,N,10023.65049,E,1,12,0.54,-1.4,M,-28.2,M,,*48
$GNGSA,A,3,02,05,20,06,11,19,25,12,,,,,1.20,0.54,1.07,1*0A
$GNGSA,A,3,69,67,68,83,82,,,,,,,,1.20,0.54,1.07,2*07
$GNGSA,A,3,09,36,02,11,05,25,,,,,,,1.20,0.54,1.07,3*0B
$GNGSA,A,3,35,08,13,10,29,19,07,22,,,,,1.20,0.54,1.07,4*09
$GPGSV,3,1,12,02,31,329,42,05,61,266,46,06,22,048,36,11,36,013,39,1*6B
$GPGSV,3,2,12,12,49,271,40,13,30,164,28,19,35,110,34,20,58,356,48,1*6A
$GPGSV,3,3,12,25,21,303,30,39,45,252,33,41,64,233,46,50,55,115,42,1*6F
$GPGSV,2,1,05,05,61,266,41,06,22,048,31,11,36,013,39,12,49,271,34,6*68
$GPGSV,2,2,05,25,21,303,31,6*50
$GPGSV,1,1,02,09,00,042,,40,36,257,,0*69
$GLGSV,2,1,07,67,23,032,33,68,70,072,49,69,44,186,46,73,17,274,30,1*7E
$GLGSV,2,2,07,81,06,099,26,82,28,056,44,83,27,004,20,1*4F
$GLGSV,2,1,07,67,23,032,35,68,70,072,47,69,44,186,44,73,17,274,28,3*7F
$GLGSV,2,2,07,81,06,099,22,82,28,056,45,83,27,004,31,3*48
$GLGSV,1,1,02,74,00,314,,80,20,225,,0*71
$GAGSV,2,1,08,02,43,263,34,05,46,161,46,09,45,081,40,10,03,080,29,2*7F
$GAGSV,2,2,08,11,20,060,24,18,66,020,48,25,36,195,38,36,37,007,40,2*7D
$GAGSV,2,1,06,05,46,161,46,09,45,081,46,11,20,060,30,18,66,020,49,7*77
$GAGSV,2,2,06,25,36,195,40,36,37,007,38,7*73
$GAGSV,2,1,05,03,08,201,,04,06,043,,24,00,156,,30,12,309,,0*71
$GAGSV,2,2,05,30,12,309,,0*4B
$GBGSV,2,1,08,07,63,172,40,08,43,350,41,10,73,200,44,13,47,333,47,1*75
$GBGSV,2,2,08,19,50,041,49,22,70,198,50,29,35,086,38,35,49,014,48,1*73
$GBGSV,1,1,04,07,63,172,41,08,43,350,41,10,73,200,45,13,47,333,41,3*7E
$GNGLL,1342.39039,N,10023.65049,E,015920.00,A,A*72
$GNRMC,015921.00,A,1342.39040,N,10023.65049,E,0.008,,040922,,,A,V*1B
$GNVTG,,T,,M,0.008,N,0.015,K,A*31
$GNGGA,015921.00,1342.39040,N,10023.65049,E,1,12,0.54,-1.4,M,-28.2,M,,*47
$GNGSA,A,3,02,05,20,06,11,19,25,12,,,,,1.20,0.54,1.07,1*0A
$GNGSA,A,3,69,67,68,83,82,,,,,,,,1.20,0.54,1.07,2*07
$GNGSA,A,3,09,36,02,11,05,25,,,,,,,1.20,0.54,1.07,3*0B
$GNGSA,A,3,35,08,13,10,29,19,07,22,,,,,1.20,0.54,1.07,4*09
$GPGSV,3,1,12,02,31,329,42,05,61,266,46,06,22,048,34,11,36,013,38,1*68
$GPGSV,3,2,12,12,49,271,41,13,30,164,28,19,35,110,34,20,58,356,48,1*6B
$GPGSV,3,3,12,25,21,303,26,39,45,252,34,41,64,233,47,50,55,115,42,1*6E
$GPGSV,2,1,05,05,61,266,42,06,22,048,34,11,36,013,41,12,49,271,36,6*63
$GPGSV,2,2,05,25,21,303,31,6*50
$GPGSV,1,1,02,09,00,042,,40,36,257,,0*69
$GLGSV,2,1,07,67,23,032,32,68,70,072,49,69,44,186,46,73,17,274,26,1*78
$GLGSV,2,2,07,81,06,099,25,82,28,056,44,83,27,004,20,1*4C
$GLGSV,2,1,07,67,23,032,35,68,70,072,48,69,44,186,45,73,17,274,27,3*7E
$GLGSV,2,2,07,81,06,099,23,82,28,056,45,83,27,004,29,3*40
$GLGSV,1,1,02,74,00,314,,80,20,225,,0*71
$GAGSV,2,1,08,02,43,263,34,05,46,161,46,09,45,081,39,10,03,080,30,2*79
$GAGSV,2,2,08,11,20,060,24,18,66,020,49,25,36,195,39,36,37,007,41,2*7C
$GAGSV,2,1,06,05,46,161,46,09,45,081,46,18,66,020,49,25,36,195,40,7*7B
$GAGSV,2,2,06,34,20,311,27,36,37,007,37,7*74
$GAGSV,1,1,04,03,08,201,,04,06,043,,24,00,156,,30,12,309,,0*73
$GBGSV,2,1,08,07,63,172,41,08,43,350,42,10,73,200,45,13,47,333,47,1*76
$GBGSV,2,2,08,19,50,041,50,22,70,198,52,29,35,086,39,35,49,014,49,1*79
$GBGSV,1,1,04,07,63,172,42,08,43,350,43,10,73,200,46,13,47,333,43,3*7E
$GNGLL,1342.39040,N,10023.65049,E,015921.00,A,A*7D
$GNRMC,015922.00,A,1342.39040,N,10023.65049,E,0.015,,040922,,,A,V*14
$GNVTG,,T,,M,0.015,N,0.028,K,A*33
$GNGGA,015922.00,1342.39040,N,10023.65049,E,1,12,0.54,-1.4,M,-28.2,M,,*44
$GNGSA,A,3,02,05,20,06,11,19,25,12,,,,,1.20,0.54,1.07,1*0A
$GNGSA,A,3,69,67,68,83,82,,,,,,,,1.20,0.54,1.07,2*07
$GNGSA,A,3,09,36,02,11,05,25,,,,,,,1.20,0.54,1.07,3*0B
$GNGSA,A,3,35,08,13,10,29,19,07,22,,,,,1.20,0.54,1.07,4*09
$GPGSV,3,1,12,02,31,329,41,05,61,266,45,06,22,048,35,11,36,013,38,1*69
$GPGSV,3,2,12,12,49,271,40,13,30,164,28,19,35,110,34,20,58,356,47,1*65
$GPGSV,3,3,12,25,21,303,31,39,45,252,33,41,64,233,45,50,55,115,41,1*6E
$GPGSV,2,1,05,05,61,266,42,06,22,048,32,11,36,013,39,12,49,271,35,6*69
$GPGSV,2,2,05,25,21,303,31,6*50
$GPGSV,1,1,02,09,00,042,,40,36,257,,0*69
$GLGSV,2,1,07,67,23,032,31,68,70,072,48,69,44,186,44,73,17,274,27,1*79
$GLGSV,2,2,07,81,06,099,26,82,28,056,43,83,27,004,20,1*48
$GLGSV,2,1,07,67,23,032,36,68,70,072,48,69,44,186,45,73,17,274,28,3*72
$GLGSV,2,2,07,81,06,099,23,82,28,056,45,83,27,004,31,3*49
$GLGSV,1,1,02,74,00,313,,80,20,225,,0*76
$GAGSV,2,1,08,02,43,263,34,05,46,161,46,09,45,081,39,10,03,080,30,2*79
$GAGSV,2,2,08,11,20,060,24,18,66,020,49,25,36,195,39,36,37,007,41,2*7C
$GAGSV,2,1,08,02,43,263,25,05,46,161,45,09,45,081,45,11,20,060,31,7*7B
$GAGSV,2,2,08,18,66,020,48,25,36,195,39,34,20,311,27,36,37,007,36,7*79
$GAGSV,1,1,04,03,08,201,,04,06,043,,24,00,156,,30,12,309,,0*73
$GBGSV,2,1,08,07,63,172,39,08,43,350,40,10,73,200,43,13,47,333,45,1*7F
$GBGSV,2,2,08,19,50,041,49,22,70,198,50,29,35,086,37,35,49,014,47,1*73
$GBGSV,2,1,05,07,63,172,42,08,43,350,42,10,73,200,46,13,47,333,42,3*7C
$GBGSV,2,2,05,22,70,198,20,3*44
$GNGLL,1342.39040,N,10023.65049,E,015922.00,A,A*7E
$GNRMC,015923.00,A,1342.39041,N,10023.65049,E,0.004,,040922,,,A,V*14
$GNVTG,,T,,M,0.004,N,0.008,K,A*31
$GNGGA,015923.00,1342.39041,N,10023.65049,E,1,12,0.54,-1.4,M,-28.2,M,,*44
$GNGSA,A,3,02,05,20,06,11,19,25,12,,,,,1.20,0.54,1.07,1*0A
$GNGSA,A,3,69,67,68,83,82,,,,,,,,1.20,0.54,1.07,2*07
$GNGSA,A,3,09,36,02,11,05,25,,,,,,,1.20,0.54,1.07,3*0B
$GNGSA,A,3,35,08,13,10,29,19,07,22,,,,,1.20,0.54,1.07,4*09
$GPGSV,3,1,12,02,31,329,42,05,61,266,45,06,22,048,35,11,36,013,40,1*65
$GPGSV,3,2,12,12,49,271,41,13,30,164,30,19,35,110,34,20,58,356,48,1*62
$GPGSV,3,3,12,25,21,303,27,39,45,252,33,41,64,233,46,50,55,115,42,1*69
$GPGSV,2,1,05,05,61,266,41,06,22,048,32,11,36,013,38,12,49,271,35,6*6B
$GPGSV,2,2,05,25,21,303,32,6*53
$GPGSV,1,1,02,09,00,042,,40,36,257,,0*69
$GLGSV,2,1,07,67,23,032,33,68,70,072,48,69,44,186,47,73,17,274,27,1*78
$GLGSV,2,2,07,81,06,099,26,82,28,056,43,83,27,004,21,1*49
$GLGSV,2,1,07,67,23,032,37,68,70,072,47,69,44,186,47,73,17,274,27,3*71
$GLGSV,2,2,07,81,06,099,24,82,28,056,47,83,27,004,32,3*4F
$GLGSV,1,1,02,74,00,313,,80,20,225,,0*76
$GAGSV,2,1,08,02,43,263,34,05,46,161,46,09,45,081,40,10,03,080,30,2*77
$GAGSV,2,2,08,11,20,060,26,18,66,020,49,25,36,195,40,36,37,007,39,2*7F
$GAGSV,2,1,06,05,46,161,47,09,45,081,45,18,66,020,49,25,36,195,42,7*7B
$GAGSV,2,2,06,34,20,311,26,36,37,007,39,7*7B
$GAGSV,1,1,04,03,08,201,,04,06,043,,24,00,156,,30,12,309,,0*73
$GBGSV,2,1,08,07,63,172,40,08,43,350,42,10,73,200,45,13,47,333,47,1*77
$GBGSV,2,2,08,19,50,041,50,22,70,198,52,29,35,086,37,35,49,014,47,1*79
$GBGSV,2,1,05,07,63,172,42,08,43,350,42,10,73,200,45,13,47,333,42,3*7F
$GBGSV,2,2,05,22,70,198,16,3*41
$GNGLL,1342.39041,N,10023.65049,E,015923.00,A,A*7E
$GNRMC,015924.00,A,1342.39041,N,10023.65049,E,0.007,,040922,,,A,V*10
$GNVTG,,T,,M,0.007,N,0.013,K,A*38
$GNGGA,015924.00,1342.39041,N,10023.65049,E,1,12,0.54,-1.3,M,-28.2,M,,*44
$GNGSA,A,3,02,05,20,06,11,19,25,12,,,,,1.20,0.54,1.07,1*0A
$GNGSA,A,3,69,67,68,83,82,,,,,,,,1.20,0.54,1.07,2*07
$GNGSA,A,3,09,36,02,11,05,25,,,,,,,1.20,0.54,1.07,3*0B
$GNGSA,A,3,35,08,13,10,29,19,07,22,,,,,1.20,0.54,1.07,4*09
$GPGSV,3,1,12,02,31,329,42,05,61,266,45,06,22,048,36,11,36,013,40,1*66
$GPGSV,3,2,12,12,49,271,41,13,30,164,30,19,35,110,33,20,58,356,48,1*65
$GPGSV,3,3,12,25,21,303,30,39,45,252,34,41,64,233,46,50,55,115,42,1*68
$GPGSV,2,1,05,05,61,266,41,06,22,048,32,11,36,013,38,12,49,271,35,6*6B
$GPGSV,2,2,05,25,21,303,31,6*50
$GPGSV,1,1,02,09,00,042,,40,36,257,,0*69
$GLGSV,2,1,07,67,23,032,33,68,70,072,48,69,44,186,47,73,17,274,28,1*77
$GLGSV,2,2,07,81,06,099,27,82,28,056,43,83,27,004,23,1*4A
$GLGSV,2,1,07,67,23,032,36,68,70,072,47,69,44,186,48,73,17,274,25,3*7D
$GLGSV,2,2,07,81,06,099,24,82,28,056,46,83,27,004,33,3*4F
$GLGSV,1,1,02,74,00,313,,80,20,225,,0*76
$GAGSV,2,1,08,02,43,263,35,05,46,161,46,09,45,081,39,10,03,080,29,2*70
$GAGSV,2,2,08,11,20,060,26,18,66,020,48,25,36,195,41,36,37,007,40,2*71
$GAGSV,2,1,07,05,46,161,47,09,45,081,45,11,20,060,27,18,66,020,48,7*73
$GAGSV,2,2,07,25,36,195,42,34,20,311,24,36,37,007,38,7*40
$GAGSV,1,1,04,03,08,201,,04,06,043,,24,00,156,,30,12,309,,0*73
$GBGSV,2,1,08,07,63,172,39,08,43,350,41,10,73,200,44,13,47,333,47,1*7B
$GBGSV,2,2,08,19,50,041,49,22,70,198,51,29,35,086,36,35,49,014,47,1*73
$GBGSV,2,1,05,07,63,172,41,08,43,350,42,10,73,200,45,13,47,333,41,3*7F
$GBGSV,2,2,05,22,70,198,13,3*44
$GNGLL,1342.39041,N,10023.65049,E,015924.00,A,A*79
$GNRMC,015925.00,A,1342.39041,N,10023.65049,E,0.012,,040922,,,A,V*15
$GNVTG,,T,,M,0.012,N,0.022,K,A*3E
$GNGGA,015925.00,1342.39041,N,10023.65049,E,1,12,0.54,-1.3,M,-28.2,M,,*45
$GNGSA,A,3,02,05,20,06,11,19,25,12,,,,,1.20,0.54,1.07,1*0A
$GNGSA,A,3,69,67,68,83,82,,,,,,,,1.20,0.54,1.07,2*07
$GNGSA,A,3,09,36,02,11,05,25,,,,,,,1.20,0.54,1.07,3*0B
$GNGSA,A,3,35,08,13,10,29,19,07,22,,,,,1.20,0.54,1.07,4*09
$GPGSV,3,1,12,02,31,329,42,05,61,266,45,06,22,048,36,11,36,013,40,1*66
$GPGSV,3,2,12,12,49,271,41,13,30,164,30,19,35,110,34,20,58,356,48,1*62
$GPGSV,3,3,12,25,21,303,29,39,45,252,34,41,64,233,46,50,55,115,42,1*60
$GPGSV,2,1,05,05,61,266,40,06,22,048,32,11,36,013,37,12,49,271,34,6*64
$GPGSV,2,2,05,25,21,303,30,6*51
$GPGSV,1,1,02,09,00,042,,40,36,257,,0*69
$GLGSV,2,1,07,67,23,032,33,68,70,072,48,69,44,186,47,73,17,274,28,1*77
$GLGSV,2,2,07,81,06,099,27,82,28,056,42,83,27,004,24,1*4C
$GLGSV,2,1,07,67,23,032,36,68,70,072,47,69,44,186,47,73,17,274,25,3*72
$GLGSV,2,2,07,81,06,099,23,82,28,056,46,83,27,004,33,3*48
$GLGSV,1,1,02,74,00,313,,80,20,225,,0*76
$GAGSV,2,1,08,02,43,263,35,05,46,161,46,09,45,081,39,10,03,080,30,2*78
$GAGSV,2,2,08,11,20,060,26,18,66,020,48,25,36,195,41,36,37,007,40,2*71
$GAGSV,2,1,07,05,46,161,47,09,45,081,45,11,20,060,27,18,66,020,48,7*73
$GAGSV,2,2,07,25,36,195,42,34,20,311,24,36,37,007,39,7*41
$GAGSV,1,1,04,03,08,201,,04,06,043,,24,00,156,,30,12,309,,0*73
$GBGSV,2,1,08,07,63,172,39,08,43,350,41,10,73,200,44,13,47,333,47,1*7B
$GBGSV,2,2,08,19,50,041,49,22,70,198,51,29,35,086,37,35,49,014,47,1*72
$GBGSV,2,1,05,07,63,172,41,08,43,350,42,10,73,200,46,13,47,333,41,3*7C
$GBGSV,2,2,05,22,70,198,10,3*47
$GNGLL,1342.39041,N,10023.65049,E,015925.00,A,A*78
$GNRMC,015926.00,A,1342.39041,N,10023.65050,E,0.002,,040922,,,A,V*1F
$GNVTG,,T,,M,0.002,N,0.004,K,A*3B
$GNGGA,015926.00,1342.39041,N,10023.65050,E,1,12,0.54,-1.3,M,-28.2,M,,*4E
$GNGSA,A,3,02,05,20,06,11,19,25,12,,,,,1.20,0.54,1.07,1*0A
$GNGSA,A,3,69,67,68,83,82,,,,,,,,1.20,0.54,1.07,2*07
$GNGSA,A,3,09,36,02,11,05,25,,,,,,,1.20,0.54,1.07,3*0B
$GNGSA,A,3,35,08,13,10,29,19,07,22,,,,,1.20,0.54,1.07,4*09
$GPGSV,3,1,12,02,31,329,42,05,61,266,45,06,22,048,36,11,36,013,40,1*66
$GPGSV,3,2,12,12,49,271,41,13,30,164,30,19,35,110,34,20,58,356,48,1*62
$GPGSV,3,3,12,25,21,303,29,39,45,252,34,41,64,233,46,50,55,115,42,1*60
$GPGSV,2,1,05,05,61,266,40,06,22,048,32,11,36,013,37,12,49,271,34,6*64
$GPGSV,2,2,05,25,21,303,30,6*51
$GPGSV,1,1,02,09,00,042,,40,36,257,,0*69
$GLGSV,2,1,07,67,23,032,32,68,70,072,48,69,44,186,47,73,17,274,29,1*77
$GLGSV,2,2,07,81,06,099,27,82,28,056,43,83,27,004,25,1*4C
$GLGSV,2,1,07,67,23,032,35,68,70,072,47,69,44,186,47,73,17,274,25,3*71
$GLGSV,2,2,07,81,06,099,23,82,28,056,46,83,27,004,32,3*49
$GLGSV,1,1,02,74,00,313,,80,20,225,,0*76
$GAGSV,2,1,08,02,43,263,34,05,46,161,45,09,45,081,39,10,03,080,29,2*72
$GAGSV,2,2,08,11,20,060,26,18,66,020,48,25,36,195,40,36,37,007,40,2*70
$GAGSV,2,1,07,05,46,161,47,09,45,081,45,11,20,060,28,18,66,020,49,7*7D
$GAGSV,2,2,07,25,36,195,43,34,20,311,25,36,37,007,39,7*41
$GAGSV,1,1,04,03,08,201,,04,06,043,,24,00,156,,30,12,309,,0*73
$GBGSV,2,1,08,07,63,172,39,08,43,350,41,10,73,200,44,13,47,333,47,1*7B
$GBGSV,2,2,08,19,50,041,49,22,70,198,51,29,35,086,37,35,49,014,47,1*72
$GBGSV,2,1,05,07,63,172,40,08,43,350,42,10,73,200,45,13,47,333,41,3*7E
$GBGSV,2,2,05,22,70,198,08,3*4E
$GNGLL,1342.39041,N,10023.65050,E,015926.00,A,A*73
$GNRMC,015927.00,A,1342.39041,N,10023.65050,E,0.008,,040922,,,A,V*14
$GNVTG,,T,,M,0.008,N,0.014,K,A*30
$GNGGA,015927.00,1342.39041,N,10023.65050,E,1,12,0.54,-1.2,M,-28.2,M,,*4E
$GNGSA,A,3,02,05,20,06,11,19,25,12,,,,,1.20,0.54,1.07,1*0A
$GNGSA,A,3,69,67,68,83,82,,,,,,,,1.20,0.54,1.07,2*07
$GNGSA,A,3,09,36,02,11,05,25,,,,,,,1.20,0.54,1.07,3*0B
$GNGSA,A,3,35,08,13,10,29,19,07,22,,,,,1.20,0.54,1.07,4*09
$GPGSV,3,1,12,02,31,329,43,05,61,266,45,06,22,048,36,11,36,013,40,1*67
$GPGSV,3,2,12,12,49,271,41,13,30,164,29,19,35,110,34,20,58,356,48,1*6A
$GPGSV,3,3,12,25,21,303,29,39,45,252,34,41,64,233,46,50,55,115,42,1*60
$GPGSV,2,1,05,05,61,266,40,06,22,048,32,11,36,013,37,12,49,271,35,6*65
$GPGSV,2,2,05,25,21,303,29,6*59
$GPGSV,1,1,02,09,00,042,,40,36,257,,0*69
$GLGSV,2,1,07,67,23,032,33,68,70,072,48,69,44,186,48,73,17,274,30,1*71
$GLGSV,2,2,07,81,06,099,28,82,28,056,43,83,27,004,25,1*43
$GLGSV,2,1,07,67,23,032,37,68,70,072,47,69,44,186,47,73,17,274,25,3*73
$GLGSV,2,2,07,81,06,099,23,82,28,056,46,83,27,004,32,3*49
$GLGSV,1,1,02,74,00,313,,80,20,225,,0*76
$GAGSV,2,1,08,02,43,263,35,05,46,161,46,09,45,081,39,10,03,080,29,2*70
$GAGSV,2,2,08,11,20,060,26,18,66,020,48,25,36,195,41,36,37,007,40,2*71
$GAGSV,2,1,07,05,46,161,47,09,45,081,45,11,20,060,28,18,66,020,49,7*7D
$GAGSV,2,2,07,25,36,195,43,34,20,311,24,36,37,007,39,7*40
$GAGSV,1,1,04,03,08,201,,04,06,043,,24,00,156,,30,12,309,,0*73
$GBGSV,2,1,08,07,63,172,39,08,43,350,41,10,73,200,44,13,47,333,47,1*7B
$GBGSV,2,2,08,19,50,041,49,22,70,198,51,29,35,086,37,35,49,014,47,1*72
$GBGSV,2,1,05,07,63,172,39,08,43,350,41,10,73,200,45,13,47,333,40,3*72
$GBGSV,2,2,05,22,70,198,08,3*4E
$GNGLL,1342.39041,N,10023.65050,E,015927.00,A,A*72
$GNRMC,015928.00,A,1342.39042,N,10023.65050,E,0.017,,040922,,,A,V*16
$GNVTG,,T,,M,0.017,N,0.031,K,A*39
$GNGGA,015928.00,1342.39042,N,10023.65050,E,1,12,0.54,-1.2,M,-28.2,M,,*42
$GNGSA,A,3,02,05,20,06,11,19,25,12,,,,,1.20,0.54,1.07,1*0A
$GNGSA,A,3,69,67,68,83,82,,,,,,,,1.20,0.54,1.07,2*07
$GNGSA,A,3,09,36,02,11,05,25,,,,,,,1.20,0.54,1.07,3*0B
$GNGSA,A,3,35,08,13,10,29,19,07,22,,,,,1.20,0.54,1.07,4*09
$GPGSV,3,1,12,02,31,329,43,05,61,266,45,06,22,048,34,11,36,013,39,1*6B
$GPGSV,3,2,12,12,49,271,41,13,30,164,29,19,35,110,34,20,58,356,48,1*6A
$GPGSV,3,3,12,25,21,303,29,39,45,252,34,41,64,233,46,50,55,115,42,1*60
$GPGSV,2,1,05,05,61,266,40,06,22,048,32,11,36,013,37,12,49,271,35,6*65
$GPGSV,2,2,05,25,21,303,29,6*59
$GPGSV,1,1,02,09,00,042,,40,36,257,,0*69
$GLGSV,2,1,07,67,23,032,33,68,70,072,48,69,44,186,47,73,17,274,30,1*7E
$GLGSV,2,2,07,81,06,099,28,82,28,056,43,83,27,004,25,1*43
$GLGSV,2,1,07,67,23,032,35,68,70,072,47,69,44,186,47,73,17,274,24,3*70
$GLGSV,2,2,07,81,06,099,23,82,28,056,46,83,27,004,32,3*49
$GLGSV,1,1,02,74,00,313,,80,19,225,,0*7C
$GAGSV,2,1,08,02,43,263,35,05,46,161,46,09,45,081,39,10,03,080,30,2*78
$GAGSV,2,2,08,11,20,060,27,18,66,020,49,25,36,195,41,36,37,007,40,2*71
$GAGSV,2,1,08,02,43,263,26,05,46,161,47,09,45,081,45,11,20,060,28,7*72
$GAGSV,2,2,08,18,66,020,49,25,36,195,42,34,20,311,23,36,37,007,39,7*7F
$GAGSV,1,1,04,03,08,201,,04,06,043,,24,00,156,,30,12,309,,0*73
$GBGSV,2,1,08,07,63,172,38,08,43,350,41,10,73,200,45,13,47,333,47,1*7B
$GBGSV,2,2,08,19,50,041,49,22,70,198,51,29,35,086,37,35,49,014,47,1*72
$GBGSV,2,1,05,07,63,172,38,08,43,350,40,10,73,200,44,13,47,333,40,3*73
$GBGSV,2,2,05,22,70,198,06,3*40
$GNGLL,1342.39042,N,10023.65050,E,015928.00,A,A*7E
$GNRMC,015929.00,A,1342.39042,N,10023.65050,E,0.012,,040922,,,A,V*12
$GNVTG,,T,,M,0.012,N,0.023,K,A*3F
$GNGGA,015929.00,1342.39042,N,10023.65050,E,1,12,0.54,-1.2,M,-28.2,M,,*43
$GNGSA,A,3,02,05,20,06,11,19,25,12,,,,,1.20,0.54,1.07,1*0A
$GNGSA,A,3,69,67,68,83,82,,,,,,,,1.20,0.54,1.07,2*07
$GNGSA,A,3,09,36,02,11,05,25,,,,,,,1.20,0.54,1.07,3*0B
$GNGSA,A,3,35,08,13,10,29,19,07,22,,,,,1.20,0.54,1.07,4*09
$GPGSV,3,1,11,02,31,329,43,05,61,266,46,06,22,048,36,11,36,013,41,1*66
$GPGSV,3,2,11,12,49,271,41,13,30,164,29,19,35,110,34,20,58,356,48,1*69
$GPGSV,3,3,11,39,45,252,34,41,64,233,47,50,55,115,43,1*5C
$GPGSV,2,1,05,05,61,266,41,06,22,048,32,11,36,013,37,12,49,271,35,6*64
$GPGSV,2,2,05,25,21,303,30,6*51
$GPGSV,1,1,02,09,00,042,,40,36,257,,0*69
$GLGSV,2,1,07,67,23,032,34,68,70,072,49,69,44,186,49,73,17,274,30,1*76
$GLGSV,2,2,07,81,05,100,29,82,28,056,44,83,27,004,26,1*44
$GLGSV,2,1,07,67,23,032,35,68,70,072,47,69,44,186,47,73,17,274,23,3*77
$GLGSV,2,2,07,81,05,100,23,82,28,056,45,83,27,004,32,3*48
$GLGSV,1,1,02,74,00,313,,80,19,225,,0*7C
$GAGSV,2,1,08,02,43,263,34,05,46,161,46,09,45,081,39,10,03,080,29,2*71
$GAGSV,2,2,08,11,20,060,26,18,66,020,48,25,36,195,41,36,37,007,40,2*71
$GAGSV,2,1,07,05,46,161,47,09,45,081,45,11,20,060,28,18,66,020,49,7*7D
$GAGSV,2,2,07,25,36,195,43,34,20,311,23,36,37,007,39,7*47
$GAGSV,1,1,04,03,08,201,,04,06,043,,24,00,156,,30,12,309,,0*73
$GBGSV,2,1,08,07,63,172,39,08,43,350,42,10,73,200,45,13,47,333,47,1*79
$GBGSV,2,2,08,19,50,041,50,22,70,198,52,29,35,086,37,35,49,014,47,1*79
$GBGSV,2,1,05,07,63,172,40,08,43,350,42,10,73,200,46,13,47,333,41,3*7D
$GBGSV,2,2,05,22,70,198,07,3*41
$GNGLL,1342.39042,N,10023.65050,E,015929.00,A,A*7F
$GNRMC,015930.00,A,1342.39043,N,10023.65050,E,0.009,,040922,,,A,V*11
$GNVTG,,T,,M,0.009,N,0.017,K,A*32
$GNGGA,015930.00,1342.39043,N,10023.65050,E,1,12,0.54,-1.1,M,-28.2,M,,*49
$GNGSA,A,3,02,05,20,06,11,19,25,12,,,,,1.20,0.54,1.07,1*0A
$GNGSA,A,3,69,67,68,83,82,,,,,,,,1.20,0.54,1.07,2*07
$GNGSA,A,3,09,36,02,11,05,25,,,,,,,1.20,0.54,1.07,3*0B
$GNGSA,A,3,35,08,13,10,29,19,07,22,,,,,1.20,0.54,1.07,4*09
$GPGSV,3,1,12,02,31,329,42,05,61,266,45,06,22,048,36,11,36,013,40,1*66
$GPGSV,3,2,12,12,49,271,41,13,30,164,29,19,35,110,34,20,58,356,48,1*6A
$GPGSV,3,3,12,25,21,303,29,39,45,252,34,41,64,233,47,50,55,115,42,1*61
$GPGSV,2,1,05,05,61,266,41,06,22,048,32,11,36,013,38,12,49,271,35,6*6B
$GPGSV,2,2,05,25,21,303,30,6*51
$GPGSV,1,1,02,09,00,042,,40,36,257,,0*69
$GLGSV,2,1,07,67,23,032,35,68,70,072,49,69,44,186,48,73,17,274,32,1*74
$GLGSV,2,2,07,81,05,100,29,82,28,056,43,83,27,004,27,1*42
$GLGSV,2,1,07,67,23,032,35,68,70,072,47,69,44,186,47,73,17,274,23,3*77
$GLGSV,2,2,07,81,05,100,24,82,28,056,45,83,27,004,32,3*4F
$GLGSV,1,1,02,74,00,313,,80,19,225,,0*7C
$GAGSV,2,1,08,02,43,263,35,05,46,161,46,09,45,081,39,10,03,080,29,2*70
$GAGSV,2,2,08,11,20,060,26,18,66,020,48,25,36,195,41,36,37,007,40,2*71
$GAGSV,2,1,06,05,46,161,47,09,45,081,46,11,20,060,28,18,66,020,49,7*7F
$GAGSV,2,2,06,25,36,195,43,36,37,007,39,7*71
$GAGSV,2,1,05,03,08,201,,04,06,043,,24,00,156,,30,12,309,,0*71
$GAGSV,2,2,05,30,12,309,,0*4B
$GBGSV,2,1,08,07,63,172,39,08,43,350,41,10,73,200,45,13,47,333,47,1*7A
$GBGSV,2,2,08,19,50,041,49,22,70,198,52,29,35,086,37,35,49,014,47,1*71
$GBGSV,2,1,05,07,63,172,40,08,43,350,42,10,73,200,46,13,47,333,41,3*7D
$GBGSV,2,2,05,22,70,198,07,3*41
$GNGLL,1342.39043,N,10023.65050,E,015930.00,A,A*76
$GNRMC,015931.00,A,1342.39043,N,10023.65050,E,0.010,,040922,,,A,V*18
$GNVTG,,T,,M,0.010,N,0.018,K,A*35
$GNGGA,015931.00,1342.39043,N,10023.65050,E,1,12,0.54,-1.1,M,-28.2,M,,*48
$GNGSA,A,3,02,05,20,06,11,19,25,12,,,,,1.20,0.54,1.07,1*0A
$GNGSA,A,3,69,67,68,83,82,,,,,,,,1.20,0.54,1.07,2*07
$GNGSA,A,3,09,36,02,11,05,25,,,,,,,1.20,0.54,1.07,3*0B
$GNGSA,A,3,35,08,13,10,29,19,07,22,,,,,1.20,0.54,1.07,4*09
$GPGSV,3,1,12,02,31,329,42,05,61,266,45,06,22,048,36,11,36,013,40,1*66
$GPGSV,3,2,12,12,49,271,41,13,30,164,30,19,35,110,34,20,58,356,48,1*62
$GPGSV,3,3,12,25,21,303,29,39,45,252,34,41,64,233,47,50,55,115,42,1*61
$GPGSV,2,1,05,05,61,266,41,06,22,048,31,11,36,013,37,12,49,271,35,6*67
$GPGSV,2,2,05,25,21,303,30,6*51
$GPGSV,1,1,02,09,00,042,,40,36,257,,0*69
$GLGSV,2,1,07,67,23,032,35,68,70,072,48,69,44,186,48,73,17,274,31,1*76
$GLGSV,2,2,07,81,05,100,29,82,28,056,43,83,28,005,27,1*4C
$GLGSV,2,1,07,67,23,032,36,68,70,072,47,69,44,186,47,73,17,274,23,3*74
$GLGSV,2,2,07,81,05,100,25,82,28,056,45,83,28,005,32,3*40
$GLGSV,1,1,02,74,00,313,,80,19,225,,0*7C
$GAGSV,2,1,08,02,43,263,35,05,46,161,46,09,45,081,39,10,03,080,29,2*70
$GAGSV,2,2,08,11,20,060,26,18,66,020,48,25,36,195,41,36,37,007,40,2*71
$GAGSV,2,1,06,05,46,161,47,09,45,081,45,11,20,060,27,18,66,020,48,7*72
$GAGSV,2,2,06,25,36,195,42,36,37,007,38,7*71
$GAGSV,2,1,05,03,08,201,,04,06,043,,24,00,156,,30,12,309,,0*71
$GAGSV,2,2,05,30,12,309,,0*4B
$GBGSV,2,1,08,07,63,172,39,08,43,350,41,10,73,200,45,13,47,333,47,1*7A
$GBGSV,2,2,08,19,50,041,49,22,70,198,52,29,35,086,37,35,49,014,47,1*71
$GBGSV,2,1,05,07,63,172,40,08,43,350,42,10,73,200,45,13,47,333,41,3*7E
$GBGSV,2,2,05,22,70,198,08,3*4E
$GNGLL,1342.39043,N,10023.65050,E,015931.00,A,A*77
$GNRMC,015932.00,A,1342.39043,N,10023.65050,E,0.001,,040922,,,A,V*1B
$GNVTG,,T,,M,0.001,N,0.003,K,A*3F
$GNGGA,015932.00,1342.39043,N,10023.65050,E,1,12,0.54,-1.1,M,-28.2,M,,*4B
$GNGSA,A,3,02,05,20,06,11,19,25,12,,,,,1.20,0.54,1.07,1*0A
$GNGSA,A,3,69,67,68,83,82,,,,,,,,1.20,0.54,1.07,2*07
$GNGSA,A,3,09,36,02,11,05,25,,,,,,,1.20,0.54,1.07,3*0B
$GNGSA,A,3,35,08,13,10,29,19,07,22,,,,,1.20,0.54,1.07,4*09
$GPGSV,3,1,12,02,31,329,42,05,61,266,45,06,22,048,36,11,36,013,39,1*68
$GPGSV,3,2,12,12,49,271,41,13,30,164,30,19,35,110,34,20,58,356,48,1*62
$GPGSV,3,3,12,25,21,303,29,39,45,252,34,41,64,233,47,50,55,115,42,1*61
$GPGSV,2,1,05,05,61,266,41,06,22,048,31,11,36,013,38,12,49,271,36,6*6B
$GPGSV,2,2,05,25,21,303,28,6*58
$GPGSV,1,1,02,09,00,042,,40,36,257,,0*69
$GLGSV,2,1,07,67,23,032,35,68,70,072,48,69,44,186,48,73,17,274,32,1*75
$GLGSV,2,2,07,81,05,100,29,82,28,056,43,83,28,005,27,1*4C
$GLGSV,2,1,07,67,23,032,36,68,70,072,47,69,44,186,47,73,17,274,23,3*74
$GLGSV,2,2,07,81,05,100,25,82,28,056,45,83,28,005,32,3*40
$GLGSV,1,1,02,74,00,313,,80,19,225,,0*7C
$GAGSV,2,1,08,02,43,263,35,05,46,161,46,09,45,081,39,10,03,080,29,2*70
$GAGSV,2,2,08,11,20,060,26,18,66,020,48,25,36,195,41,36,37,007,39,2*7F
$GAGSV,2,1,06,05,46,161,47,09,45,081,46,11,20,060,28,18,66,020,49,7*7F
$GAGSV,2,2,06,25,36,195,43,36,37,007,38,7*70
$GAGSV,2,1,05,03,08,201,,04,06,043,,24,00,156,,30,12,309,,0*71
$GAGSV,2,2,05,30,12,309,,0*4B
$GBGSV,2,1,08,07,63,172,39,08,43,350,41,10,73,200,45,13,47,333,47,1*7A
$GBGSV,2,2,08,19,50,041,49,22,70,198,52,29,35,086,37,35,49,014,47,1*71
$GBGSV,2,1,05,07,63,172,40,08,43,350,42,10,73,200,45,13,47,333,41,3*7E
$GBGSV,2,2,05,22,70,198,08,3*4E
$GNGLL,1342.39043,N,10023.65050,E,015932.00,A,A*74
$GNRMC,015933.00,A,1342.39043,N,10023.65050,E,0.008,,040922,,,A,V*13
$GNVTG,,T,,M,0.008,N,0.014,K,A*30
$GNGGA,015933.00,1342.39043,N,10023.65050,E,1,12,0.54,-1.1,M,-28.2,M,,*4A
$GNGSA,A,3,02,05,20,06,11,19,25,12,,,,,1.20,0.54,1.07,1*0A
$GNGSA,A,3,69,67,68,83,82,,,,,,,,1.20,0.54,1.07,2*07
$GNGSA,A,3,09,36,02,11,05,25,,,,,,,1.20,0.54,1.07,3*0B
$GNGSA,A,3,35,08,13,10,29,19,07,22,,,,,1.20,0.54,1.07,4*09
$GPGSV,3,1,11,02,31,329,43,05,61,266,45,06,22,048,36,11,36,013,40,1*64
$GPGSV,3,2,11,12,49,271,41,13,30,164,30,19,35,110,34,20,58,356,48,1*61
$GPGSV,3,3,11,39,45,252,34,41,64,233,47,50,55,115,42,1*5D
$GPGSV,2,1,05,05,61,266,41,06,22,048,32,11,36,013,38,12,49,271,36,6*68
$GPGSV,2,2,05,25,21,303,29,6*59
$GPGSV,1,1,02,09,00,042,,40,36,257,,0*69
$GLGSV,2,1,07,67,23,032,34,68,70,072,48,69,44,186,48,73,17,274,31,1*77
$GLGSV,2,2,07,81,05,100,29,82,28,056,43,83,28,005,27,1*4C
$GLGSV,2,1,07,67,23,032,35,68,70,072,47,69,44,186,47,73,17,274,24,3*70
$GLGSV,2,2,07,81,05,100,25,82,28,056,45,83,28,005,32,3*40
$GLGSV,1,1,02,74,00,313,,80,19,225,,0*7C
$GAGSV,2,1,08,02,43,263,35,05,46,161,46,09,45,081,39,10,03,080,29,2*70
$GAGSV,2,2,08,11,20,060,26,18,66,020,48,25,36,195,41,36,37,007,40,2*71
$GAGSV,2,1,07,02,43,263,26,05,46,161,47,09,45,081,45,11,20,060,27,7*72
$GAGSV,2,2,07,18,66,020,48,25,36,195,43,36,37,007,38,7*46
$GAGSV,2,1,05,03,08,201,,04,06,043,,24,00,156,,30,12,309,,0*71
$GAGSV,2,2,05,30,12,309,,0*4B
$GBGSV,2,1,08,07,63,172,39,08,43,350,41,10,73,200,45,13,47,333,47,1*7A
$GBGSV,2,2,08,19,50,041,49,22,70,198,52,29,35,086,37,35,49,014,47,1*71
$GBGSV,1,1,04,07,63,172,40,08,43,350,41,10,73,200,45,13,47,333,40,3*7E
$GNGLL,1342.39043,N,10023.65050,E,015933.00,A,A*75
$GNRMC,015934.00,A,1342.39044,N,10023.65050,E,0.006,,040922,,,A,V*1D
$GNVTG,,T,,M,0.006,N,0.011,K,A*3B
$GNGGA,015934.00,1342.39044,N,10023.65050,E,1,12,0.54,-1.1,M,-28.2,M,,*4A
$GNGSA,A,3,02,05,20,06,11,19,25,12,,,,,1.20,0.54,1.07,1*0A
$GNGSA,A,3,69,67,68,83,82,,,,,,,,1.20,0.54,1.07,2*07
$GNGSA,A,3,09,36,02,11,05,25,,,,,,,1.20,0.54,1.07,3*0B
$GNGSA,A,3,35,08,13,10,29,19,07,22,,,,,1.20,0.54,1.07,4*09
$GPGSV,3,1,12,02,31,329,43,05,61,266,45,06,22,048,36,11,36,013,40,1*67
$GPGSV,3,2,12,12,49,271,41,13,30,164,30,19,35,110,34,20,58,356,47,1*6D
$GPGSV,3,3,12,25,21,303,29,39,45,252,34,41,64,233,47,50,55,115,42,1*61
$GPGSV,2,1,05,05,61,266,41,06,22,048,31,11,36,013,37,12,49,271,36,6*64
$GPGSV,2,2,05,25,21,303,30,6*51
$GPGSV,1,1,02,09,00,042,,40,36,257,,0*69
$GLGSV,2,1,07,67,23,032,34,68,70,072,48,69,44,186,48,73,17,274,32,1*74
$GLGSV,2,2,07,81,05,100,30,82,28,056,43,83,28,005,28,1*4B
$GLGSV,2,1,07,67,23,032,35,68,70,072,47,69,44,186,47,73,17,274,25,3*71
$GLGSV,2,2,07,81,05,100,26,82,28,056,45,83,28,005,31,3*40
$GLGSV,1,1,02,74,00,313,,80,19,225,,0*7C
$GAGSV,2,1,08,02,43,263,35,05,46,161,46,09,45,081,39,10,03,080,29,2*70
$GAGSV,2,2,08,11,20,060,26,18,66,020,48,25,36,195,41,36,37,007,40,2*71
$GAGSV,2,1,07,02,43,263,26,05,46,161,47,09,45,081,45,11,20,060,27,7*72
$GAGSV,2,2,07,18,66,020,48,25,36,195,43,36,37,007,39,7*47
$GAGSV,2,1,05,03,08,201,,04,06,043,,24,00,156,,30,12,309,,0*71
$GAGSV,2,2,05,30,12,309,,0*4B
$GBGSV,2,1,08,07,63,172,39,08,43,350,41,10,73,200,45,13,47,333,47,1*7A
$GBGSV,2,2,08,19,50,041,49,22,70,198,52,29,35,086,37,35,49,014,47,1*71
$GBGSV,1,1,04,07,63,172,40,08,43,350,41,10,73,200,45,13,47,333,40,3*7E
$GNGLL,1342.39044,N,10023.65050,E,015934.00,A,A*75
$GNRMC,015935.00,A,1342.39044,N,10023.65050,E,0.012,,040922,,,A,V*19
$GNVTG,,T,,M,0.012,N,0.022,K,A*3E
$GNGGA,015935.00,1342.39044,N,10023.65050,E,1,12,0.54,-1.0,M,-28.2,M,,*4A
$GNGSA,A,3,02,05,20,06,11,19,25,12,,,,,1.20,0.54,1.07,1*0A
$GNGSA,A,3,69,67,68,83,82,,,,,,,,1.20,0.54,1.07,2*07
$GNGSA,A,3,09,36,02,11,05,25,,,,,,,1.20,0.54,1.07,3*0B
$GNGSA,A,3,35,08,13,10,29,19,07,22,,,,,1.20,0.54,1.07,4*09
$GPGSV,3,1,12,02,31,329,42,05,61,266,45,06,22,048,35,11,36,013,40,1*65
$GPGSV,3,2,12,12,49,271,41,13,30,164,30,19,35,110,34,20,58,356,47,1*6D
$GPGSV,3,3,12,25,21,303,28,39,45,252,34,41,64,233,46,50,55,115,42,1*61
$GPGSV,2,1,05,05,61,266,41,06,22,048,31,11,36,013,37,12,49,271,36,6*64
$GPGSV,2,2,05,25,21,303,30,6*51
$GPGSV,1,1,02,09,00,042,,40,36,257,,0*69
$GLGSV,2,1,07,67,23,032,34,68,70,072,48,69,44,186,47,73,17,274,31,1*78
$GLGSV,2,2,07,81,05,100,29,82,28,056,41,83,28,005,28,1*41
$GLGSV,2,1,07,67,23,032,35,68,70,072,47,69,44,186,47,73,17,274,24,3*70
$GLGSV,2,2,07,81,05,100,25,82,28,056,45,83,28,005,31,3*43
$GLGSV,1,1,02,74,00,313,,80,19,225,,0*7C
$GAGSV,2,1,08,02,43,263,35,05,46,161,46,09,45,081,39,10,03,080,28,2*71
$GAGSV,2,2,08,11,20,060,26,18,66,020,48,25,36,195,41,36,37,007,40,2*71
$GAGSV,2,1,06,05,46,161,47,09,45,081,45,11,20,060,28,18,66,020,49,7*7C
$GAGSV,2,2,06,25,36,195,43,36,37,007,39,7*71
$GAGSV,2,1,05,03,08,201,,04,06,043,,24,00,156,,30,12,309,,0*71
$GAGSV,2,2,05,30,12,309,,0*4B
$GBGSV,2,1,08,07,63,172,39,08,43,350,41,10,73,200,45,13,47,333,47,1*7A
$GBGSV,2,2,08,19,50,041,49,22,70,198,52,29,35,086,37,35,49,014,46,1*70
$GBGSV,1,1,04,07,63,172,40,08,43,350,41,10,73,200,45,13,47,333,40,3*7E
$GNGLL,1342.39044,N,10023.65050,E,015935.00,A,A*74
$GNRMC,015936.00,A,1342.39044,N,10023.65051,E,0.009,,040922,,,A,V*11
$GNVTG,,T,,M,0.009,N,0.017,K,A*32
$GNGGA,015936.00,1342.39044,N,10023.65051,E,1,12,0.54,-1.0,M,-28.2,M,,*48
$GNGSA,A,3,02,05,20,06,11,19,25,12,,,,,1.20,0.54,1.07,1*0A
$GNGSA,A,3,69,67,68,83,82,,,,,,,,1.20,0.54,1.07,2*07
$GNGSA,A,3,09,36,02,11,05,25,,,,,,,1.20,0.54,1.07,3*0B
$GNGSA,A,3,35,08,13,10,29,19,07,22,,,,,1.20,0.54,1.07,4*09
$GPGSV,3,1,12,02,31,329,43,05,61,266,45,06,22,048,35,11,36,013,40,1*64
$GPGSV,3,2,12,12,49,271,41,13,30,164,31,19,35,110,35,20,58,356,47,1*6D
$GPGSV,3,3,12,25,21,303,28,39,45,252,34,41,64,233,46,50,55,115,42,1*61
$GPGSV,2,1,05,05,61,266,40,06,22,048,31,11,36,013,37,12,49,271,36,6*65
$GPGSV,2,2,05,25,21,303,30,6*51
$GPGSV,1,1,02,09,00,042,,40,36,257,,0*69
$GLGSV,2,1,07,67,23,032,34,68,70,072,48,69,44,186,48,73,17,274,32,1*74
$GLGSV,2,2,07,81,05,100,30,82,28,056,42,83,28,005,28,1*4A
$GLGSV,2,1,07,67,23,032,36,68,70,072,47,69,44,186,47,73,17,274,25,3*72
$GLGSV,2,2,07,81,05,100,25,82,28,056,46,83,28,005,31,3*40
$GLGSV,1,1,02,74,00,313,,80,19,225,,0*7C
$GAGSV,2,1,08,02,43,263,34,05,46,161,46,09,45,081,39,10,03,080,28,2*70
$GAGSV,2,2,08,11,20,060,26,18,66,020,48,25,36,195,41,36,37,007,40,2*71
$GAGSV,2,1,07,02,43,263,26,05,46,161,47,09,45,081,45,11,20,060,27,7*72
$GAGSV,2,2,07,18,66,020,49,25,36,195,43,36,37,007,39,7*46
$GAGSV,2,1,05,03,08,201,,04,06,043,,24,00,156,,30,12,309,,0*71
$GAGSV,2,2,05,30,12,309,,0*4B
$GBGSV,2,1,08,07,63,172,39,08,43,350,41,10,73,200,45,13,47,333,47,1*7A
$GBGSV,2,2,08,19,50,041,49,22,70,198,52,29,35,086,37,35,49,014,47,1*71
$GBGSV,1,1,04,07,63,172,40,08,43,350,41,10,73,200,45,13,47,333,40,3*7E
$GNGLL,1342.39044,N,10023.65051,E,015936.00,A,A*76
$GNRMC,015937.00,A,1342.39044,N,10023.65051,E,0.012,,040922,,,A,V*1A
$GNVTG,,T,,M,0.012,N,0.023,K,A*3F
$GNGGA,015937.00,1342.39044,N,10023.65051,E,1,12,0.54,-1.0,M,-28.2,M,,*49
$GNGSA,A,3,02,05,20,06,11,19,25,12,,,,,1.20,0.54,1.07,1*0A
$GNGSA,A,3,69,67,68,83,82,,,,,,,,1.20,0.54,1.07,2*07
$GNGSA,A,3,09,36,02,11,05,25,,,,,,,1.20,0.54,1.07,3*0B
$GNGSA,A,3,35,08,13,10,29,19,07,22,,,,,1.20,0.54,1.07,4*09
$GPGSV,3,1,12,02,31,329,43,05,61,266,45,06,22,048,35,11,36,013,40,1*64
$GPGSV,3,2,12,12,49,271,41,13,30,164,30,19,35,110,35,20,58,356,47,1*6C
$GPGSV,3,3,12,25,21,303,28,39,45,252,34,41,64,233,46,50,55,115,42,1*61
$GPGSV,2,1,05,05,61,266,41,06,22,048,30,11,36,013,37,12,49,271,36,6*65
$GPGSV,2,2,05,25,21,303,29,6*59
$GPGSV,1,1,02,09,00,042,,40,36,257,,0*69
$GLGSV,2,1,07,67,23,032,35,68,70,072,48,69,44,186,47,73,17,274,32,1*7A
$GLGSV,2,2,07,81,05,100,30,82,28,056,42,83,28,005,28,1*4A
$GLGSV,2,1,07,67,23,032,36,68,70,072,48,69,44,186,47,73,17,274,24,3*7C
$GLGSV,2,2,07,81,05,100,25,82,28,056,45,83,28,005,30,3*42
$GLGSV,1,1,02,74,00,313,,80,19,225,,0*7C
$GAGSV,2,1,08,02,43,263,34,05,46,161,46,09,45,081,39,10,03,080,28,2*70
$GAGSV,2,2,08,11,20,060,26,18,66,020,48,25,36,195,41,36,37,007,40,2*71
$GAGSV,2,1,07,02,43,263,26,05,46,161,47,09,45,081,45,11,20,060,27,7*72
$GAGSV,2,2,07,18,66,020,49,25,36,195,43,36,37,007,39,7*46
$GAGSV,2,1,05,03,08,201,,04,06,043,,24,00,156,,30,12,309,,0*71
$GAGSV,2,2,05,30,12,309,,0*4B
$GBGSV,2,1,08,07,63,172,39,08,43,350,41,10,73,200,44,13,47,333,47,1*7B
$GBGSV,2,2,08,19,50,041,49,22,70,198,52,29,35,086,38,35,49,014,47,1*7E
$GBGSV,1,1,04,07,63,172,40,08,43,350,41,10,73,200,45,13,47,333,40,3*7E
$GNGLL,1342.39044,N,10023.65051,E,015937.00,A,A*77
$GNRMC,015938.00,A,1342.39044,N,10023.65051,E,0.007,,040922,,,A,V*11
$GNVTG,,T,,M,0.007,N,0.014,K,A*3F
$GNGGA,015938.00,1342.39044,N,10023.65051,E,1,12,0.54,-1.0,M,-28.2,M,,*46
$GNGSA,A,3,02,05,20,06,11,19,25,12,,,,,1.20,0.54,1.07,1*0A
$GNGSA,A,3,69,67,68,83,82,,,,,,,,1.20,0.54,1.07,2*07
$GNGSA,A,3,09,36,02,11,05,25,,,,,,,1.20,0.54,1.07,3*0B
$GNGSA,A,3,35,08,13,10,29,19,07,22,,,,,1.20,0.54,1.07,4*09
$GPGSV,3,1,12,02,31,329,43,05,61,266,44,06,22,048,35,11,36,013,40,1*65
$GPGSV,3,2,12,12,49,271,41,13,30,164,31,19,35,110,34,20,58,356,47,1*6C
$GPGSV,3,3,12,25,21,303,28,39,45,252,34,41,64,233,46,50,55,115,42,1*61
$GPGSV,2,1,05,05,61,266,41,06,22,048,31,11,36,013,37,12,49,271,36,6*64
$GPGSV,2,2,05,25,21,303,30,6*51
$GPGSV,1,1,02,09,00,042,,40,36,257,,0*69
$GLGSV,2,1,07,67,23,032,35,68,70,072,48,69,44,186,47,73,17,274,32,1*7A
$GLGSV,2,2,07,81,05,100,30,82,28,056,42,83,28,005,28,1*4A
$GLGSV,2,1,07,67,23,032,35,68,70,072,48,69,44,186,47,73,17,274,24,3*7F
$GLGSV,2,2,07,81,05,100,25,82,28,056,46,83,28,005,30,3*41
$GLGSV,1,1,02,74,00,313,,80,19,225,,0*7C
$GAGSV,2,1,08,02,43,263,34,05,46,161,46,09,45,081,39,10,03,080,28,2*70
$GAGSV,2,2,08,11,20,060,26,18,66,020,48,25,36,195,41,36,37,007,40,2*71
$GAGSV,2,1,06,05,46,161,47,09,45,081,45,11,20,060,27,18,66,020,49,7*73
$GAGSV,2,2,06,25,36,195,43,36,37,007,39,7*71
$GAGSV,2,1,05,03,08,201,,04,06,043,,24,00,156,,30,12,309,,0*71
$GAGSV,2,2,05,30,12,309,,0*4B
$GBGSV,2,1,08,07,63,172,39,08,43,350,41,10,73,200,44,13,47,333,47,1*7B
$GBGSV,2,2,08,19,50,041,49,22,70,198,52,29,35,086,37,35,49,014,47,1*71
$GBGSV,1,1,04,07,63,172,40,08,43,350,41,10,73,200,45,13,47,333,40,3*7E
$GNGLL,1342.39044,N,10023.65051,E,015938.00,A,A*78
$GNRMC,015939.00,A,1342.39045,N,10023.65051,E,0.012,,040922,,,A,V*15
$GNVTG,,T,,M,0.012,N,0.022,K,A*3E
$GNGGA,015939.00,1342.39045,N,10023.65051,E,1,12,0.54,-1.0,M,-28.2,M,,*46
$GNGSA,A,3,02,05,20,06,11,19,25,12,,,,,1.20,0.54,1.07,1*0A
$GNGSA,A,3,69,67,68,83,82,,,,,,,,1.20,0.54,1.07,2*07
$GNGSA,A,3,09,36,02,11,05,25,,,,,,,1.20,0.54,1.07,3*0B
$GNGSA,A,3,35,08,13,10,29,19,07,22,,,,,1.20,0.54,1.07,4*09
$GPGSV,3,1,12,02,31,329,43,05,61,266,45,06,22,048,36,11,36,013,40,1*67
$GPGSV,3,2,12,12,49,271,42,13,30,164,31,19,35,110,34,20,58,356,47,1*6F
$GPGSV,3,3,12,25,21,303,28,39,45,252,34,41,64,233,47,50,55,115,42,1*60
$GPGSV,2,1,05,05,61,266,41,06,22,048,31,11,36,013,37,12,49,271,37,6*65
$GPGSV,2,2,05,25,21,303,30,6*51
$GPGSV,1,1,02,09,00,042,,40,36,257,,0*69
$GLGSV,2,1,07,67,23,032,35,68,70,072,48,69,44,186,48,73,17,274,33,1*74
$GLGSV,2,2,07,81,05,100,30,82,28,056,42,83,28,005,29,1*4B
$GLGSV,2,1,07,67,23,032,36,68,70,072,48,69,44,186,47,73,17,274,24,3*7C
$GLGSV,2,2,07,81,05,100,25,82,28,056,46,83,28,005,30,3*41
$GLGSV,1,1,02,74,00,313,,80,19,225,,0*7C
$GAGSV,2,1,08,02,43,263,34,05,46,161,46,09,45,081,39,10,03,080,28,2*70
$GAGSV,2,2,08,11,20,060,26,18,66,020,48,25,36,195,41,36,37,007,40,2*71
$GAGSV,2,1,06,05,46,161,47,09,45,081,45,11,20,060,26,18,66,020,49,7*72
$GAGSV,2,2,06,25,36,195,43,36,37,007,39,7*71
$GAGSV,2,1,05,03,08,201,,04,06,043,,24,00,156,,30,12,309,,0*71
$GAGSV,2,2,05,30,12,309,,0*4B
$GBGSV,2,1,08,07,63,172,39,08,43,350,41,10,73,200,44,13,47,333,47,1*7B
$GBGSV,2,2,08,19,50,041,49,22,70,198,52,29,35,086,37,35,49,014,46,1*70
$GBGSV,1,1,04,07,63,172,40,08,43,350,41,10,73,200,45,13,47,333,40,3*7E
$GNGLL,1342.39045,N,10023.65051,E,015939.00,A,A*78
$GNRMC,015940.00,A,1342.39045,N,10023.65051,E,0.004,,040922,,,A,V*1C
$GNVTG,,T,,M,0.004,N,0.008,K,A*31
$GNGGA,015940.00,1342.39045,N,10023.65051,E,1,12,0.54,-0.9,M,-28.2,M,,*40
$GNGSA,A,3,02,05,20,06,11,19,25,12,,,,,1.20,0.54,1.07,1*0A
$GNGSA,A,3,69,67,68,83,82,,,,,,,,1.20,0.54,1.07,2*07
$GNGSA,A,3,09,36,02,11,05,25,,,,,,,1.20,0.54,1.07,3*0B
$GNGSA,A,3,35,08,13,10,29,19,07,22,,,,,1.20,0.54,1.07,4*09
$GPGSV,3,1,12,02,31,329,43,05,61,266,45,06,22,048,36,11,36,013,40,1*67
$GPGSV,3,2,12,12,49,271,42,13,30,164,31,19,35,110,35,20,58,356,47,1*6E
$GPGSV,3,3,12,25,21,303,28,39,45,252,34,41,64,233,47,50,55,115,42,1*60
$GPGSV,2,1,05,05,61,266,41,06,22,048,29,11,36,013,36,12,49,271,36,6*6C
$GPGSV,2,2,05,25,21,303,29,6*59
$GPGSV,1,1,02,09,00,042,,40,36,257,,0*69
$GLGSV,2,1,07,67,23,032,35,68,70,072,48,69,44,186,48,73,17,274,33,1*74
$GLGSV,2,2,07,81,05,100,30,82,28,056,42,83,28,005,29,1*4B
$GLGSV,2,1,07,67,23,032,35,68,70,072,48,69,44,186,47,73,17,274,24,3*7F
$GLGSV,2,2,07,81,05,100,25,82,28,056,46,83,28,005,30,3*41
$GLGSV,1,1,02,74,00,313,,80,19,225,,0*7C
$GAGSV,2,1,08,02,43,263,35,05,46,161,46,09,45,081,39,10,03,080,28,2*71
$GAGSV,2,2,08,11,20,060,26,18,66,020,48,25,36,195,41,36,37,007,40,2*71
$GAGSV,2,1,06,05,46,161,47,09,45,081,45,11,20,060,26,18,66,020,49,7*72
$GAGSV,2,2,06,25,36,195,43,36,37,007,39,7*71
$GAGSV,2,1,05,03,08,201,,04,06,043,,24,00,156,,30,12,309,,0*71
$GAGSV,2,2,05,30,12,309,,0*4B
$GBGSV,2,1,08,07,63,172,39,08,43,350,41,10,73,200,44,13,47,333,47,1*7B
$GBGSV,2,2,08,19,50,041,49,22,70,198,52,29,35,086,37,35,49,014,46,1*70
$GBGSV,1,1,04,07,63,172,40,08,43,350,41,10,73,200,45,13,47,333,40,3*7E
$GNGLL,1342.39045,N,10023.65051,E,015940.00,A,A*76
$GNRMC,015941.00,A,1342.39045,N,10023.65051,E,0.008,,040922,,,A,V*11
$GNVTG,,T,,M,0.008,N,0.016,K,A*32
$GNGGA,015941.00,1342.39045,N,10023.65051,E,1,12,0.54,-0.9,M,-28.2,M,,*41
$GNGSA,A,3,02,05,20,06,11,19,25,12,,,,,1.20,0.54,1.07,1*0A
$GNGSA,A,3,69,67,68,83,82,,,,,,,,1.20,0.54,1.07,2*07
$GNGSA,A,3,09,36,02,11,05,25,,,,,,,1.20,0.54,1.07,3*0B
$GNGSA,A,3,35,08,13,10,29,19,07,22,,,,,1.20,0.54,1.07,4*09
$GPGSV,3,1,11,02,31,329,43,05,61,267,45,06,22,048,35,11,36,013,40,1*66
$GPGSV,3,2,11,12,49,271,41,13,30,164,31,19,35,110,34,20,58,356,48,1*60
$GPGSV,3,3,11,39,45,252,34,41,64,233,47,50,55,115,42,1*5D
$GPGSV,2,1,05,05,61,267,41,06,22,048,28,11,36,013,37,12,49,271,37,6*6C
$GPGSV,2,2,05,25,21,303,30,6*51
$GPGSV,1,1,02,09,00,042,,40,36,257,,0*69
$GLGSV,2,1,07,67,23,032,36,68,70,072,48,69,44,186,47,73,17,274,33,1*78
$GLGSV,2,2,07,81,05,100,31,82,28,056,42,83,28,005,29,1*4A
$GLGSV,2,1,07,67,23,032,35,68,70,072,48,69,44,186,47,73,17,274,24,3*7F
$GLGSV,2,2,07,81,05,100,25,82,28,056,45,83,28,005,31,3*43
$GLGSV,1,1,02,74,00,313,,80,19,225,,0*7C
$GAGSV,2,1,08,02,43,263,34,05,46,161,47,09,45,081,39,10,03,080,28,2*71
$GAGSV,2,2,08,11,20,060,26,18,66,020,48,25,36,195,41,36,37,007,40,2*71
$GAGSV,2,1,05,05,46,161,48,09,45,081,46,18,66,020,49,25,36,195,43,7*75
$GAGSV,2,2,05,36,37,007,40,7*44
$GAGSV,2,1,05,03,08,201,,04,06,043,,24,00,156,,30,12,309,,0*71
$GAGSV,2,2,05,30,12,309,,0*4B
$GBGSV,2,1,08,07,63,172,39,08,43,350,41,10,73,200,45,13,47,333,47,1*7A
$GBGSV,2,2,08,19,50,041,50,22,70,198,53,29,35,086,38,35,49,014,47,1*77
$GBGSV,1,1,04,07,63,172,39,08,43,350,41,10,73,200,45,13,47,333,41,3*71
$GNGLL,1342.39045,N,10023.65051,E,015941.00,A,A*77
$GNRMC,015942.00,A,1342.39045,N,10023.65051,E,0.003,,040922,,,A,V*19
$GNVTG,,T,,M,0.003,N,0.006,K,A*38
$GNGGA,015942.00,1342.39045,N,10023.65051,E,1,12,0.54,-0.9,M,-28.2,M,,*42
$GNGSA,A,3,02,05,20,06,11,19,25,12,,,,,1.20,0.54,1.07,1*0A
$GNGSA,A,3,69,67,68,83,82,,,,,,,,1.20,0.54,1.07,2*07
$GNGSA,A,3,09,36,02,11,05,25,,,,,,,1.20,0.54,1.07,3*0B
$GNGSA,A,3,35,08,13,10,29,19,07,22,,,,,1.20,0.54,1.07,4*09
$GPGSV,3,1,11,02,31,329,44,05,61,267,45,06,22,049,36,11,36,013,40,1*63
$GPGSV,3,2,11,12,49,271,42,13,30,164,33,19,35,110,35,20,58,356,48,1*60
$GPGSV,3,3,11,39,45,252,35,41,64,233,47,50,55,115,43,1*5D
$GPGSV,2,1,05,05,61,267,41,06,22,049,28,11,36,013,37,12,49,271,37,6*6D
$GPGSV,2,2,05,25,21,303,30,6*51
$GPGSV,1,1,02,09,00,042,,40,36,257,,0*69
$GLGSV,2,1,07,67,23,032,35,68,70,072,49,69,44,186,48,73,17,274,33,1*75
$GLGSV,2,2,07,81,05,100,30,82,28,056,42,83,28,005,29,1*4B
$GLGSV,2,1,07,67,23,032,36,68,70,072,47,69,44,186,47,73,17,274,23,3*74
$GLGSV,2,2,07,81,05,100,26,82,28,056,46,83,28,005,30,3*42
$GLGSV,1,1,02,74,00,313,,80,19,225,,0*7C
$GAGSV,2,1,08,02,43,263,34,05,46,161,46,09,45,081,39,10,03,080,28,2*70
$GAGSV,2,2,08,11,20,060,27,18,66,020,48,25,36,195,41,36,37,007,40,2*70
$GAGSV,2,1,05,05,46,161,48,09,45,081,45,18,66,020,49,25,36,195,43,7*76
$GAGSV,2,2,05,36,37,007,40,7*44
$GAGSV,2,1,05,03,08,201,,04,06,043,,24,00,156,,30,12,309,,0*71
$GAGSV,2,2,05,30,12,309,,0*4B
$GBGSV,2,1,08,07,63,172,40,08,43,350,42,10,73,200,45,13,47,333,47,1*77
$GBGSV,2,2,08,19,50,041,50,22,70,198,53,29,35,086,38,35,49,014,47,1*77
$GBGSV,1,1,04,07,63,172,40,08,43,350,41,10,73,200,45,13,47,333,40,3*7E
$GNGLL,1342.39045,N,10023.65051,E,015942.00,A,A*74
$GNRMC,015943.00,A,1342.39045,N,10023.65051,E,0.005,,040922,,,A,V*1E
$GNVTG,,T,,M,0.005,N,0.009,K,A*31
$GNGGA,015943.00,1342.39045,N,10023.65051,E,1,12,0.54,-0.9,M,-28.2,M,,*43
$GNGSA,A,3,02,05,20,06,11,19,25,12,,,,,1.20,0.54,1.07,1*0A
$GNGSA,A,3,69,67,68,83,82,,,,,,,,1.20,0.54,1.07,2*07
$GNGSA,A,3,09,36,02,11,05,25,,,,,,,1.20,0.54,1.07,3*0B
$GNGSA,A,3,35,08,13,10,29,19,07,22,,,,,1.20,0.54,1.07,4*09
$GPGSV,3,1,11,02,31,329,43,05,61,267,45,06,22,049,36,11,36,013,40,1*64
$GPGSV,3,2,11,12,49,271,42,13,30,164,33,19,35,110,35,20,58,356,48,1*60
$GPGSV,3,3,11,39,45,252,35,41,64,233,47,50,55,115,43,1*5D
$GPGSV,2,1,05,05,61,267,41,06,22,049,28,11,36,013,38,12,49,271,37,6*62
$GPGSV,2,2,05,25,21,303,30,6*51
$GPGSV,1,1,03,09,00,042,,15,17,197,,40,36,257,,0*55
$GLGSV,2,1,07,67,23,032,35,68,70,072,49,69,44,186,48,73,17,274,33,1*75
$GLGSV,2,2,07,81,05,100,30,82,28,056,42,83,28,005,29,1*4B
$GLGSV,2,1,07,67,23,032,36,68,70,072,48,69,44,186,47,73,17,274,23,3*7B
$GLGSV,2,2,07,81,05,100,25,82,28,056,46,83,28,005,30,3*41
$GLGSV,1,1,02,74,00,313,,80,19,225,,0*7C
$GAGSV,2,1,08,02,43,263,34,05,46,161,46,09,45,081,40,10,03,080,28,2*7E
$GAGSV,2,2,08,11,20,060,28,18,66,020,48,25,36,195,41,36,37,007,40,2*7F
$GAGSV,2,1,06,02,43,263,27,05,46,161,47,09,45,081,45,18,66,020,49,7*75
$GAGSV,2,2,06,25,36,195,43,36,37,007,39,7*71
$GAGSV,2,1,05,03,08,201,,04,06,043,,24,00,156,,30,12,309,,0*71
$GAGSV,2,2,05,30,12,309,,0*4B
$GBGSV,2,1,08,07,63,172,39,08,43,350,42,10,73,200,45,13,47,333,47,1*79
$GBGSV,2,2,08,19,50,041,49,22,70,198,52,29,35,086,37,35,49,014,46,1*70
$GBGSV,1,1,04,07,63,172,40,08,43,350,41,10,73,200,45,13,47,333,40,3*7E
$GNGLL,1342.39045,N,10023.65051,E,015943.00,A,A*75
$GNRMC,015944.00,A,1342.39045,N,10023.65051,E,0.009,,040922,,,A,V*15
$GNVTG,,T,,M,0.009,N,0.016,K,A*33
$GNGGA,015944.00,1342.39045,N,10023.65051,E,1,12,0.54,-0.9,M,-28.2,M,,*44
$GNGSA,A,3,02,05,20,06,11,19,25,12,,,,,1.20,0.54,1.07,1*0A
$GNGSA,A,3,69,67,68,83,82,,,,,,,,1.20,0.54,1.07,2*07
$GNGSA,A,3,09,36,02,11,05,25,,,,,,,1.20,0.54,1.07,3*0B
$GNGSA,A,3,35,08,13,10,29,19,07,22,,,,,1.20,0.54,1.07,4*09
$GPGSV,3,1,11,02,31,329,43,05,61,267,45,06,22,049,35,11,36,013,39,1*69
$GPGSV,3,2,11,12,49,271,42,13,30,164,32,19,35,110,34,20,58,356,47,1*6F
$GPGSV,3,3,11,39,45,252,34,41,64,233,46,50,55,115,42,1*5C
$GPGSV,2,1,05,05,61,267,39,06,22,049,27,11,36,013,35,12,49,271,36,6*6E
$GPGSV,2,2,05,25,21,303,29,6*59
$GPGSV,1,1,03,09,00,042,,15,17,197,,40,36,257,,0*55
$GLGSV,2,1,07,67,23,032,35,68,70,072,49,69,44,186,48,73,17,274,33,1*75
$GLGSV,2,2,07,81,05,100,29,82,28,056,42,83,28,005,29,1*43
$GLGSV,2,1,07,67,23,032,35,68,70,072,45,69,44,186,45,73,17,274,22,3*76
$GLGSV,2,2,07,81,05,100,25,82,28,056,44,83,28,005,30,3*43
$GLGSV,1,1,02,74,00,313,,80,19,225,,0*7C
$GAGSV,2,1,08,02,43,263,32,05,46,161,45,09,45,081,39,10,03,080,29,2*74
$GAGSV,2,2,08,11,20,060,28,18,66,020,46,25,36,195,40,36,37,007,38,2*7F
$GAGSV,2,1,06,02,43,263,27,05,46,161,47,09,45,081,45,18,66,020,49,7*75
$GAGSV,2,2,06,25,36,195,43,36,37,007,39,7*71
$GAGSV,2,1,05,03,08,201,,04,06,043,,24,00,156,,30,12,309,,0*71
$GAGSV,2,2,05,30,12,309,,0*4B
$GBGSV,2,1,08,07,63,172,39,08,43,350,40,10,73,200,43,13,47,333,46,1*7C
$GBGSV,2,2,08,19,50,041,48,22,70,198,51,29,35,086,37,35,49,014,45,1*71
$GBGSV,1,1,04,07,63,172,39,08,43,350,39,10,73,200,43,13,47,333,39,3*77
$GNGLL,1342.39045,N,10023.65051,E,015944.00,A,A*72
$GNRMC,015945.00,A,1342.39045,N,10023.65051,E,0.008,,040922,,,A,V*15
$GNVTG,,T,,M,0.008,N,0.014,K,A*30
$GNGGA,015945.00,1342.39045,N,10023.65051,E,1,12,0.54,-0.8,M,-28.2,M,,*44
$GNGSA,A,3,02,05,20,06,11,19,25,12,,,,,1.20,0.54,1.07,1*0A
$GNGSA,A,3,69,67,68,83,82,,,,,,,,1.20,0.54,1.07,2*07
$GNGSA,A,3,09,36,02,11,05,25,,,,,,,1.20,0.54,1.07,3*0B
$GNGSA,A,3,35,08,13,10,29,19,07,22,,,,,1.20,0.54,1.07,4*09
$GPGSV,3,1,11,02,31,329,43,05,61,267,45,06,22,049,35,11,36,013,40,1*67
$GPGSV,3,2,11,12,49,271,42,13,30,164,32,19,35,110,33,20,58,356,47,1*68
$GPGSV,3,3,11,39,45,252,34,41,64,233,47,50,55,115,42,1*5D
$GPGSV,2,1,05,05,61,267,41,06,22,049,27,11,36,013,36,12,49,271,36,6*62
$GPGSV,2,2,05,25,21,303,29,6*59
$GPGSV,1,1,02,15,17,197,,40,36,257,,0*6B
$GLGSV,2,1,07,67,23,032,35,68,70,072,47,69,44,186,46,73,17,274,33,1*75
$GLGSV,2,2,07,81,05,100,29,82,28,056,40,83,28,005,29,1*41
$GLGSV,2,1,07,67,23,032,35,68,70,072,46,69,44,186,46,73,17,274,22,3*76
$GLGSV,2,2,07,81,05,100,24,82,28,056,44,83,28,005,29,3*4A
$GLGSV,1,1,02,74,00,313,,80,19,225,,0*7C
$GAGSV,2,1,08,02,43,263,33,05,46,161,46,09,45,081,39,10,03,080,28,2*77
$GAGSV,2,2,08,11,20,060,27,18,66,020,48,25,36,195,41,36,37,007,39,2*7E
$GAGSV,2,1,06,02,43,263,26,05,46,161,47,09,45,081,45,18,66,020,49,7*74
$GAGSV,2,2,06,25,36,195,43,36,37,007,39,7*71
$GAGSV,2,1,05,03,08,201,,04,06,043,,24,00,156,,30,12,309,,0*71
